Time ,pitch,roll,yaw,X, Y,Z,VX,VY,VZ,Range_Up ,Range_Front,Range_Back,Range_Right,Range_Left,State
0.016958951950073,0,0,0,0,0,0.039108876138926,0,0,0,-1,6.34653425216676,1.68364071846008,2.73489475250248,2.216037273407, State.safe
0.129186153411865,0,0,0,0,0,0.029140714555979,0,0,0,-1,6.34653425216676,1.68364071846008,2.73489475250248,2.216037273407, State.safe
0.238428354263306,0,0,0,0,0,0.029140714555979,0,0,0,-1,6.34653425216676,1.68364071846008,2.73489475250248,2.216037273407, State.safe
0.346289396286011,0,0,0,0,0,0.029140714555979,0,0,0,-1,6.34653425216676,1.68364071846008,2.73489475250248,2.216037273407, State.safe
0.460562467575073,0,0,0,0,0,0.029140714555979,0,0,0,-1,6.34653425216676,1.68364071846008,2.73489475250248,2.216037273407, State.safe
0.627393245697022,0,0,0,0,0,0.029140714555979,0,0,0,-1,6.34653425216676,1.68364071846008,2.73489475250248,2.216037273407, State.safe
0.738258600234985,0,0,0,0,0,0.029140714555979,0,0,0,-1,6.34653425216676,1.68364071846008,2.73489475250248,2.216037273407, State.safe
0.849960565567017,0,0,0,0,0,0.029140714555979,0,0,0,-1,6.34653425216676,1.68364071846008,2.73489475250248,2.216037273407, State.safe
0.959075212478638,0,0,0,0,0,0.029140714555979,0,0,0,-1,6.34653425216676,1.68364071846008,2.73489475250248,2.216037273407, State.safe
1.06526756286621,0,0,0,0,0,0.029140714555979,0,0,0,-1,6.34653425216676,1.68364071846008,2.73489475250248,2.216037273407, State.safe
1.17488431930542,0,0,0,0,0,0.029140714555979,0,0,0,-1,6.34653425216676,1.68364071846008,2.73489475250248,2.216037273407, State.safe
1.28226137161255,0,0,0,0,0,0.029140714555979,0,0,0,-1,6.34653425216676,1.68364071846008,2.73489475250248,2.216037273407, State.safe
1.39520859718323,0,0,0,0,0,0.029140714555979,0,0,0,-1,6.34653425216676,1.68364071846008,2.73489475250248,2.216037273407, State.safe
1.51102876663208,0,0,0,0,0,0.029140714555979,0,0,0,-1,6.34653425216676,1.68364071846008,2.73489475250248,2.216037273407, State.safe
1.61936116218567,0,0,0,0,0,0.029140714555979,0,0,0,-1,6.34653425216676,1.68364071846008,2.73489475250248,2.216037273407, State.safe
1.73644804954529,0,0,0,0,0,0.029140714555979,0,0,0,-1,6.34653425216676,1.68364071846008,2.73489475250248,2.216037273407, State.safe
1.84815263748169,0,0,0,0,0,0.029140714555979,0,0,0,-1,6.34653425216676,1.68364071846008,2.73489475250248,2.216037273407, State.safe
1.96828961372376,0,0,0,0,0,0.029140714555979,0,0,0,-1,6.34653425216676,1.68364071846008,2.73489475250248,2.216037273407, State.safe
2.09351062774658,0,0,0,0,0,0.029140714555979,0,0,0,-1,6.34653425216676,1.68364071846008,2.73489475250248,2.216037273407, State.safe
2.20252704620361,0,0,0,0,0,0.029140714555979,0,0,0,-1,6.34653425216676,1.68364071846008,2.73489475250248,2.216037273407, State.safe
2.31634402275085,0,0,0,0,0,0.029140714555979,0,0,0,-1,6.34653425216676,1.68364071846008,2.73489475250248,2.216037273407, State.safe
2.42960715293884,0,0,0,0,0,0.029140714555979,0,0,0,-1,6.34653425216676,1.68364071846008,2.73489475250248,2.216037273407, State.safe
2.53886556625366,0,0,0,0,0,0.029140714555979,0,0,0,-1,6.34653425216676,1.68364071846008,2.73489475250248,2.216037273407, State.safe
2.65294289588928,0,0,0,0,0,0.029140714555979,0,0,0,-1,6.34653425216676,1.68364071846008,2.73489475250248,2.216037273407, State.safe
2.7596070766449,0,0,0,0,0,0.029140714555979,0,0,0,-1,6.34653425216676,1.68364071846008,2.73489475250248,2.216037273407, State.safe
2.86867380142212,0,0,0,0,0,0.029140714555979,0,0,0,-1,6.34653425216676,1.68364071846008,2.73489475250248,2.216037273407, State.safe
2.98604607582092,0,0,0,0,0,0.029140714555979,0,0,0,-1,6.34653425216676,1.68364071846008,2.73489475250248,2.216037273407, State.safe
3.09763956069946,0,0,0,0,0,0.029140714555979,0,0,0,-1,6.34653425216676,1.68364071846008,2.73489475250248,2.216037273407, State.safe
3.21156167984009,0,0,0,0,0,0.029140714555979,0,0,0,-1,6.34653425216676,1.68364071846008,2.73489475250248,2.216037273407, State.safe
3.32241725921631,0,0,0,0,0,0.029140714555979,0,0,0,-1,6.34653425216676,1.68364071846008,2.73489475250248,2.216037273407, State.safe
3.43542718887329,0,0,0,0,0,0.029140714555979,0,0,0,-1,6.34653425216676,1.68364071846008,2.73489475250248,2.216037273407, State.safe
3.55252528190613,0,0,0,0,0,0.029140714555979,0,0,0,-1,6.34653425216676,1.68364071846008,2.73489475250248,2.216037273407, State.safe
3.66391158103943,0,0,0,0,0,0.029140714555979,0,0,0,-1,6.34653425216676,1.68364071846008,2.73489475250248,2.216037273407, State.safe
3.7817645072937,0,0,0,0,0,0.029140714555979,0,0,0,-1,6.34653425216676,1.68364071846008,2.73489475250248,2.216037273407, State.safe
3.8904013633728,0,0,0,0,0,0.029140714555979,0,0,0,-1,6.34653425216676,1.68364071846008,2.73489475250248,2.216037273407, State.safe
4.00050091743469,0,0,0,0,0,0.029140714555979,0,0,0,-1,6.34653425216676,1.68364071846008,2.73489475250248,2.216037273407, State.safe
4.11070728302002,0,0,0,0,0,0.029140714555979,0,0,0,-1,6.34653425216676,1.68364071846008,2.73489475250248,2.216037273407, State.safe
4.22076511383057,0,0,0,0,0,0.029140714555979,0,0,0,-1,6.34653425216676,1.68364071846008,2.73489475250248,2.216037273407, State.safe
4.32995057106018,0,0,0,0,0,0.029140714555979,0,0,0,-1,6.34653425216676,1.68364071846008,2.73489475250248,2.216037273407, State.safe
4.44580888748169,0,0,0,0,0,0.029140714555979,0,0,0,-1,6.34653425216676,1.68364071846008,2.73489475250248,2.216037273407, State.safe
4.56146574020386,0,0,0,0,0,0.029140714555979,0,0,0,-1,6.34653425216676,1.68364071846008,2.73489475250248,2.216037273407, State.safe
4.67572808265686,0,0,0,0,0,0.029140714555979,0,0,0,-1,6.34653425216676,1.68364071846008,2.73489475250248,2.216037273407, State.safe
4.78852510452271,0,0,0,0,0,0.029140714555979,0,0,0,-1,6.34653425216676,1.68364071846008,2.73489475250248,2.216037273407, State.safe
4.90543746948242,0,0,0,0,0,0.029140714555979,0,0,0,-1,6.34653425216676,1.68364071846008,2.73489475250248,2.216037273407, State.safe
5.02545356750488,0,0,0,0,0,0.029140714555979,0,0,0,-1,6.34653425216676,1.68364071846008,2.73489475250248,2.216037273407, State.safe
5.13939690589905,0,0,0,0,0,0.029140714555979,0,0,0,-1,6.34653425216676,1.68364071846008,2.73489475250248,2.216037273407, State.safe
5.24889135360718,0,0,0,0,0,0.029140714555979,0,0,0,-1,6.34653425216676,1.68364071846008,2.73489475250248,2.216037273407, State.safe
5.35947942733765,0,0,0,0,0,0.029140714555979,0,0,0,-1,6.34653425216676,1.68364071846008,2.73489475250248,2.216037273407, State.safe
5.4651186466217,0,0,0,0,0,0.029140714555979,0,0,0,-1,6.34653425216676,1.68364071846008,2.73489475250248,2.216037273407, State.safe
5.57183218002319,0,0,0,0,0,0.029140714555979,0,0,0,-1,6.34653425216676,1.68364071846008,2.73489475250248,2.216037273407, State.safe
5.68352246284485,0,0,0,0,0,0.029140714555979,0,0,0,-1,6.34653425216676,1.68364071846008,2.73489475250248,2.216037273407, State.safe
5.79766368865967,0,0,0,0,0,0.029140714555979,0,0,0,-1,6.34653425216676,1.68364071846008,2.73489475250248,2.216037273407, State.safe
5.9051194190979,0,0,0,0,0,0.029140714555979,0,0,0,-1,6.34653425216676,1.68364071846008,2.73489475250248,2.216037273407, State.safe
6.01837277412415,0,0,0,0,0,0.029140714555979,0,0,0,-1,6.34653425216676,1.68364071846008,2.73489475250248,2.216037273407, State.safe
6.1308331489563,0,0,0,0,0,0.029140714555979,0,0,0,-1,6.34653425216676,1.68364071846008,2.73489475250248,2.216037273407, State.safe
6.24042129516602,0,0,0,0,0,0.029140714555979,0,0,0,-1,6.34653425216676,1.68364071846008,2.73489475250248,2.216037273407, State.safe
6.34598159790039,0,0,0,0,0,0.029140714555979,0,0,0,-1,6.34653425216676,1.68364071846008,2.73489475250248,2.216037273407, State.safe
6.4602906703949,0,0,0,0,0,0.029140714555979,0,0,0,-1,6.34653425216676,1.68364071846008,2.73489475250248,2.216037273407, State.safe
6.56657338142395,0,0,0,0,0,0.029140714555979,0,0,0,-1,6.34653425216676,1.68364071846008,2.73489475250248,2.216037273407, State.safe
6.67438983917236,0,0,0,0,0,0.029140714555979,0,0,0,-1,6.34653425216676,1.68364071846008,2.73489475250248,2.216037273407, State.safe
6.78403043746948,0,0,0,0,0,0.029140714555979,0,0,0,-1,6.34653425216676,1.68364071846008,2.73489475250248,2.216037273407, State.safe
6.88926100730896,0,0,0,0,0,0.029140714555979,0,0,0,-1,6.34653425216676,1.68364071846008,2.73489475250248,2.216037273407, State.safe
7.00496506690979,0,0,0,0,0,0.029140714555979,0,0,0,-1,6.34653425216676,1.68364071846008,2.73489475250248,2.216037273407, State.safe
7.11932277679443,0.262388518036481,1.49949528077716,-0.0028991701658,5.59126820007805E-05,0.000449184095487,0.030079497050967,0.002315533568497,0.016230997119367,-0.24178059399128,-1,6.34653663635254,1.68364238739014,2.73500013351441,2.21613812446596, State.safe
7.2348427772522,0.494621812069648,1.02447423566313,-0.006378175824788,0.000789315148722,0.004293991718441,0.050325583688517,0.012083489731808,0.050255864463708,-0.533764779567719,-1,6.34646987915039,1.6838903427124,1.79761493206113,2.21820616722107, State.safe
7.34824824333191,0.584534438446489,-4.18200890462575,-0.005432128748557,0.002823809627444,0.009518929757178,0.09686808289277,0.02491828281397,0.015321044951943,-0.758051753044128,-1,6.34560918807984,1.68497109413147,2.72928762435917,2.22181677818298, State.safe
7.46219444274902,0.61782473185049,-1.13992291773707,-0.004760742903203,0.00638071866706,0.006565367337316,0.165288522841698,0.038785541077196,-0.057359315313705,-0.954598903656006,-1,6.34357833862306,1.68713045120239,2.7344150543213,2.00908780097975, State.safe
7.57534861564636,0.629811731823954,-0.057037344591441,-0.005096436402243,0.011452960781753,-0.000492257298902,0.360048890114897,0.053993057661121,-0.067260611306995,-1.23118472099304,-1,6.33578634262085,1.69488084316254,2.7349889278412,2.21589112281801, State.safe
7.69837594032288,0.634183071970671,0.159650556474223,-0.005371094279309,0.019233593717218,-0.008915890939534,0.495794713501254,0.070747107702476,-0.065412177873854,-1.54302072525024,-1,6.32980918884278,1.70079624652863,2.74183702468876,2.20901203155518, State.safe
7.81053113937378,0.636204904305452,1.6657286408455,0.026626988820511,0.028104742988944,-0.015641307458282,0.656643986702456,0.085361088501383,-0.045529254095545,-1.77541923522949,-1,6.32240915298462,1.70811367034914,2.74892878532419,2.20290446281434, State.safe
7.92356991767883,0.638581622100285,1.25770501766554,0.115620603621078,0.038344964385033,-0.01868244074285,0.839139878750833,0.098626707231446,-0.012770527026526,-1.85351085662842,-1,6.31356811523438,1.71681785583496,2.75357818603517,2.19885778427127, State.safe
8.04452157020569,0.639585847944871,0.839364263643351,0.254740474183465,0.051101606339216,-0.019148157909513,1.02725780010241,0.108781278198706,0.00341976300794,-1.58753764629364,-1,6.30348014831544,1.72675859928131,2.75449681282048,2.19700670242316, State.safe
8.15646386146545,0.639496881537014,0.575465727722158,0.40180728519824,0.063667871057987,-0.018128493800759,1.19452309608561,0.118019879870687,0.013252293089546,-1.295814037323,-1,6.29248189926148,1.73762357234955,2.75416278839122,2.19691538810732, State.safe
8.27259826660156,0.63900507759682,0.406769109110701,0.569634206470719,0.078003585338593,-0.016041366383433,1.33511769771729,0.127662623623863,0.020176179347576,-1.04066348075867,-1,6.28066444396973,1.74934601783753,2.75291824340821,2.19791913032533, State.safe
8.39156746864319,0.638485965125974,0.305349248380324,0.745175617495899,0.093513123691082,-0.013175280764699,1.54614830017363,0.138356775945471,0.02565119977112,-0.820765614509583,-1,6.25451946258545,1.77546203136445,2.74857997894288,2.20216488838198, State.safe
8.50419545173645,0.638062598663438,0.181741245306259,0.920541392626548,0.109808601438999,-0.009800510481,1.62371444702266,0.148977147441369,0.029241383908033,-0.653218388557434,-1,6.24012804031372,1.78993105888367,2.74569845199595,2.20508050918579, State.safe
8.61541271209717,0.637639098741148,0.153553206304474,1.09370716812232,0.126366525888443,-0.006238114554435,1.68693029880565,0.159379082826342,0.031420903454467,-0.52547961473465,-1,6.22481536865234,1.80538642406464,2.74252080917369,2.20835947990419, State.safe
8.72961735725403,0.637420489087755,0.136482628576438,1.27301920017632,0.145571082830429,-0.00204573222436,1.73839688301123,0.170644835831889,0.033460098095156,-0.417357951402664,-1,6.20855379104615,1.82185482978821,2.73910045623806,2.21192288398743, State.safe
8.84327363967896,0.637297707562736,0.1215364208931,1.45321167147907,0.165036633610725,0.00223034969531,1.78027570247692,0.182149254953299,0.035227240524318,-0.33144623041153,-1,6.191321849823,1.8393589258194,2.73545122146616,2.21575117111206, State.safe
8.96639013290405,0.637202063299531,0.107600387694012,1.64344204182073,0.18804994225502,0.007284364663064,1.81435132026751,0.194772087647619,0.036845802348637,-0.258584886789322,-1,6.17310285568238,1.85791873931885,2.73158764839173,2.21982860565187, State.safe
9.0796422958374,0.637113169762939,0.095409331033831,1.82923509433092,0.211368858814239,0.012378313578665,1.8420855998998,0.206622243732632,0.038095512067605,-0.205613851547241,-1,6.1538782119751,1.87754762172699,2.72752404212952,2.2241406440735, State.safe
9.20032453536987,0.637051728778655,0.083677706712813,2.01998106605053,0.23674838244915,0.017872067168355,1.88308119773867,0.219215231307862,0.039155050328329,-0.161747202277184,-1,6.1123676300049,1.92006194591522,2.71884846687322,2.23341417312622, State.safe
9.31426548957825,0.637024501806381,0.073453401355368,2.19652034064374,0.261553734540939,0.02317887917161,1.89810371398974,0.231263681454353,0.039927873540138,-0.128984600305557,-1,6.09006452560425,1.94296491146088,2.71426248550432,2.2383499145508, State.safe
9.42651748657227,0.636867288048704,-0.050842284256317,2.37788705785107,0.288368493318558,0.028807606548071,1.91037893295295,0.243368635598312,0.039487602928008,-0.103091835975647,-1,6.0667190551758,1.96697425842288,2.70953536033631,2.24345564842225, State.safe
9.53932666778564,0.636621327929636,-0.016540521351516,2.55451549165881,0.315793693065643,0.034282963722944,1.92043244839058,0.255194824149254,0.037904162291172,-0.083140090107918,-1,6.04232406616211,1.99209725856781,2.70481419563295,2.2485957145691, State.safe
9.65352702140808,0.636594092819205,0.013746285275577,2.74071353435036,0.346109718084335,0.040073189884424,1.92868411540998,0.267358499312519,0.037085080405493,-0.066714406013489,-1,6.01687097549442,2.01833915710449,2.7001237869263,2.25373959541322, State.safe
9.76836490631104,0.636655557698866,0.026968807842695,2.91737502339641,0.376206427812576,0.045655153691769,1.93546187877723,0.279539270735398,0.036622338208598,-0.053650572896004,-1,5.99036359786987,2.04570007324219,2.69539904594426,2.25895166397095, State.safe
9.88138461112976,0.636716995819341,0.032172397144154,3.10359202229725,0.409337371587753,0.051669653505087,1.94103848934236,0.291730425300642,0.036296452495918,-0.04327479749918,-1,5.96279764175416,2.0741822719574,2.69060420989991,2.26426672935487, State.safe
9.99448132514954,0.636744425257379,0.032269268384346,3.28026209244591,0.442104488611221,0.057515867054463,1.94563758373294,0.303921398901565,0.036005709050283,-0.035022798925638,-1,5.93417358398438,2.10378766059876,2.68572092056279,2.26970434188844, State.safe
10.1040086746216,0.36648742353695,0.029837416980436,3.45707919463242,0.476123660802841,0.063500829041004,1.94943904876891,0.313886791936669,0.035638195671914,-0.029131436720491,-1,5.90448522567749,2.13451433181763,2.68073987960825,2.27527356147766, State.safe
10.219340801239,0.140223768639928,0.026370588748143,3.63863792234413,0.511868834495544,0.069760978221893,1.95525944233008,0.318303936027535,0.035181576285764,-0.025361102074385,-1,5.84223937988281,2.19857335090637,2.67051649093629,2.28677487373352, State.safe
10.3295850753784,0.054566375570512,0.022222316813786,3.81534944367905,0.546970546245575,0.07593134790659,1.95769250392968,0.319846048821531,0.034656939917817,-0.021991029381752,-1,5.81078672409059,2.23124170303345,2.66532850265508,2.29265999794007, State.safe
10.4425361156464,0.021173583847739,-0.108428951992349,3.99201450607692,0.582165896892548,0.082123331725597,1.95981955528288,0.320333651791666,0.032950735455585,-0.018782781437039,-1,5.77929592132569,2.26402688026429,2.66013288497927,2.29859733581549, State.safe
10.5575065612793,0.007567848563244,-0.057556143969854,4.17822860339225,0.619295477867126,0.088461257517338,1.96165287494663,0.320398010371314,0.030054694823531,-0.015732288360596,-1,5.74781465530396,2.29686760902405,2.65508222579962,2.30442166328436, State.safe
10.6689918041229,0.002807207657668,-0.017486570194984,4.35490160923643,0.654516339302063,0.094337277114391,1.96322059631375,0.320292099497473,0.028401661500179,-0.013206266798079,-1,5.716365814209,2.32973742485047,2.65019083023072,2.31012535095216, State.safe
10.7814235687256,0.001038188742009,0.005139295107829,4.53634847236274,0.690666258335114,0.100327841937542,1.96455609798489,0.320127495406597,0.027286325776116,-0.011089655570686,-1,5.68496799468995,2.36262011528015,2.64537811279299,2.31579279899602, State.safe
10.8977749347687,0.000423471692497,0.017523718516106,4.71779171649451,0.726784408092499,0.106324568390846,1.9656937122346,0.319926699428583,0.026482522211595,-0.009255746379495,-1,5.65362644195557,2.39550924301148,2.64059662818911,2.32147026062013, State.safe
11.0129704475403,0.000218565999269,0.023767596075724,4.89923515450287,0.762867271900177,0.112355761229992,1.96666526794634,0.319719575294002,0.025905733709584,-0.007796793244779,-1,5.622344493866,2.42840266227723,2.63581800460817,2.32718539237977, State.safe
11.1255033016205,0.00015709431708,0.026423442145008,5.08067858275236,0.798912882804871,0.118435867130756,1.96749806404197,0.31951093497404,0.025386594381402,-0.006600340362638,-1,5.59112262725831,2.46129870414734,2.63102579116823,2.33295416831973, State.safe
11.2426760196686,0.00012294336035,0.026952671755624,5.26689730965354,0.835867464542389,0.124733172357082,1.96883261203821,0.319294741343089,0.024884312632656,-0.005592092871666,-1,5.52886295318604,2.5271008014679,2.62137126922609,2.34468317031862, State.safe
11.3639168739319,0.000122943307328,0.026221960736008,5.45788726950592,0.87372750043869,0.131253555417061,1.96936929225939,0.319073322406244,0.024339957525684,-0.004743232391775,-1,5.49782371520996,2.56000685691834,2.61650395393373,2.35064840316778, State.safe
11.4765472412109,3.41512564102586E-05,-0.096496569258018,5.63932874348756,0.909658193588257,0.137471660971642,1.96983742714012,0.318856539321589,0.022759386288901,-0.004098358098418,-1,5.46684312820436,2.59291768074036,2.61162066459657,2.3566718101502, State.safe
11.5925107002258,-0.000218566028788,-0.045867922175281,5.82554293694259,0.946516633033752,0.14368300139904,1.97024810314224,0.318624096609574,0.020117116141497,-0.003539566649124,-1,5.4359097480774,2.6258454322815,2.60685038566621,2.36262106895448, State.safe
11.7074508666992,-0.000177584895835,-0.006958007235188,6.00698528597726,0.982407569885254,0.149617627263069,1.97060811519649,0.318390005819168,0.018641757170795,-0.003052074927837,-1,5.40501880645754,2.65879225730897,2.60223102569581,2.36845588684082, State.safe
11.8184466362,-7.51320393863952E-05,0.013869025970507,6.1836527135889,1.01732409000397,0.155373200774193,1.97092449665123,0.318160413947399,0.017745426694099,-0.002651817863807,-1,5.3741774559021,2.69175386428834,2.59768128395081,2.37426471710205, State.safe
11.9342753887177,3.41509426456818E-05,0.025472052366727,6.36509426927964,1.05314838886261,0.161308735609055,1.97120261192346,0.317918504342858,0.01712059685921,-0.002298658713698,-1,5.34338855743409,2.72472667694092,2.59315156936647,2.38009524345398, State.safe
12.0494887828827,9.56225804058804E-05,0.031206608579689,6.55130863092258,1.08987498283386,0.167453721165657,1.9714473485956,0.317684488277588,0.016649275068582,-0.002009834162891,-1,5.31265544891357,2.75770807266236,2.58861207962037,2.38597583770759, State.safe
12.1634593009949,0.00012294344471,0.03319104083208,6.73274998697088,1.12561881542206,0.173506185412407,1.97185766696943,0.317447827308824,0.016301691689954,-0.001764088054188,-1,5.25135707855227,2.82369732856751,2.57944631576543,2.39794564247132, State.safe
12.2743463516235,3.415121740329E-05,-0.081634515967672,6.90941787667903,1.16038644313812,0.179435014724731,1.97203075885859,0.317217147329757,0.014918181788956,-0.001573103596456,-1,5.22079038619996,2.85670685768128,2.57482862472539,2.40403079986573, State.safe
12.3904120922089,-0.000170754681767,-0.033538811897238,7.0956336911382,1.19701647758484,0.185544371604919,1.97218549251593,0.316971275770939,0.012581273040708,-0.001399898086675,-1,5.19026136398316,2.88974189758302,2.57032418251044,2.41003680229192, State.safe
12.5064296722412,-0.000129773601113,0.003474798542652,7.27707300974326,1.2326842546463,0.191407293081284,1.97232437133826,0.316709846845755,0.011312853227771,-0.001225728425197,-1,5.15977096557618,2.92280244827272,2.56593418121343,2.41597127914429, State.safe
12.616758108139,-2.73207971308434E-05,0.022519270459998,7.45374211611111,1.26738142967224,0.197114557027817,1.97244858741776,0.316461842809663,0.0106016274594,-0.001082888804376,-1,5.12932586669922,2.95588207244874,2.56158256530766,2.42190957069403, State.safe
12.7274162769318,6.14715988808191E-05,0.032143310796242,7.6256339136201,1.30110573768616,0.202706411480904,1.97255969047702,0.316221962036894,0.010141367696311,-0.000963930564467,-1,5.09893083572389,2.98897671699524,2.55722713470478,2.42789268493657, State.safe
12.8485805988312,0.000122943303084,0.036768370652612,7.82140640074763,1.33946847915649,0.20914663374424,1.97265911102411,0.31594845591644,0.009794356708252,-0.00084809679538,-1,5.06858825683595,3.02208375930786,2.55284380912781,2.43394470214844, State.safe
12.9673929214478,0.000157094115771,0.037631955269032,8.01239635136078,1.3768470287323,0.215514630079269,1.97274839878099,0.315688709314806,0.009515620170977,-0.000752871332224,-1,5.03829765319826,3.05520486831665,2.54842019081134,2.44007849693299, State.safe
13.0803418159485,0.000157094059288,0.036623680678317,8.18906500543671,1.41137933731079,0.221481934189796,1.97290134429952,0.315434905724132,0.009268177233364,-0.000671852438245,-1,4.97787523269653,3.12148499488831,2.53943872451785,2.45260477066042, State.safe
13.1994233131409,0.000157094390789,0.034567399324545,8.3800638029999,1.44866561889648,0.228013873100281,1.972966551781,0.31516805867098,0.008948124338381,-0.000597298319917,-1,4.9477415084839,3.1546471118927,2.53487920761113,2.45899796485901, State.safe
13.3145520687103,6.14719377985145E-05,-0.084136940709209,8.56149794756694,1.48404800891876,0.234259217977524,1.97302675247285,0.314912413053862,0.007514010009534,-0.000542859022971,-1,4.91765737533569,3.1878263950348,2.53028821945195,2.46546649932862, State.safe
13.4284515380859,-0.000170754767685,-0.035736080071646,8.74294649345858,1.51941895484924,0.240366488695145,1.97308123112112,0.314646228339004,0.005214672183937,-0.000491126382258,-1,4.88760328292847,3.22103977203369,2.52579259872438,2.47187972068791, State.safe
13.5456795692444,-0.000136603779177,0.000275541741225,8.92916557957354,1.55570018291473,0.246539160609245,1.97313058376335,0.314366226442334,0.003885143166776,-0.000434821675299,-1,4.85757541656495,3.25429105758667,2.52142381668092,2.47820639610292, State.safe
13.6634011268616,-3.41508372211279E-05,0.01959027799161,9.1201544515416,1.59194815158844,0.252702802419662,1.97317516803761,0.314085126014185,0.003053797442367,-0.00038558387314,-1,4.82758474349976,3.28757190704346,2.51710653305055,2.48452425003053, State.safe
13.7823655605316,6.1471370460886E-05,0.029161975851835,9.3063719932697,1.62908351421356,0.259062737226486,1.97321581840538,0.313796613463974,0.002542688740375,-0.000341516162734,-1,4.79763412475587,3.32087635993958,2.51279759407048,2.49087667465214, State.safe
13.9004700183868,0.000122943301209,0.033507590893428,9.49736992815458,1.66617178916931,0.265486299991608,1.9732855558399,0.313516183948235,0.00212977898617,-0.000304141838569,-1,4.73786926269533,3.38755297660828,2.50411248207097,2.50377440452576, State.safe
14.0183057785034,3.41513448412331E-05,-0.078826902938166,9.68359279814466,1.70229279994965,0.271786600351334,1.97331595420878,0.31323425373812,0.000757416821294,-0.000272968871286,-1,4.70805406570435,3.42092394828796,2.49973201751709,2.51032590866089, State.safe
14.1343944072723,-0.000157094241239,-0.029113762572224,9.86503082045496,1.7374758720398,0.277795910835266,1.97334289550887,0.312942278607492,-0.001476431748542,-0.000244495313382,-1,4.67826175689698,3.45433735847474,2.49545359611512,2.51681470870972, State.safe
14.252336025238,-0.000109283070421,0.007788747496401,10.0560251219312,1.77449035644531,0.284038722515106,1.97336673736689,0.312644105201296,-0.002664896108671,-0.000219488021685,-1,4.64849042892457,3.48779559135437,2.49128389358523,2.52323675155644, State.safe
14.3723130226135,-9.60902347140809E-11,0.026458769774027,10.2470192654216,1.81146728992462,0.290289402008057,1.97338914871236,0.312337797532804,-0.003342587311268,-0.000196602239157,-1,4.61875152587893,3.52128791809083,2.48714923858653,2.52966856956483, State.safe
14.4866735935211,6.14718151980707E-05,0.035148232342536,10.428461082209,1.84655284881592,0.296278208494186,1.97341024875641,0.312047620398441,-0.003724598102067,-0.000176945104613,-1,4.58905267715456,3.55480837821961,2.48300743103032,2.53614878654482, State.safe
14.5994670391083,0.000122943184066,0.038633902194381,10.6051320428793,1.88067185878754,0.302176415920258,1.97342872619641,0.311758576906164,-0.003962493106219,-0.000159144881763,-1,4.55939483642579,3.58835458755494,2.47883534431462,2.54270386695872, State.safe
14.7115943431854,0.000157094354061,0.039213234165346,10.7865743815762,1.9156665802002,0.308311015367508,1.97346127033253,0.311477032441383,-0.004207194074773,-0.00014341599308,-1,4.50021171569825,3.65551948547363,2.47035574913035,2.5560748577119, State.safe
14.832368850708,0.000157094451563,0.037927928705508,10.977563714572,1.95245277881622,0.314854234457016,1.97347521782196,0.311165881766078,-0.004432007639278,-0.000127863080706,-1,4.47068595886231,3.68913912773133,2.46604204177886,2.56289935112005, State.safe
14.9465763568878,6.14718786493664E-05,-0.074188236242465,11.1590036647701,1.98735773563385,0.321117788553238,1.97348797321328,0.31087499664395,-0.005751697781713,-0.000110708017019,-1,4.44120073318482,3.72278594970704,2.46168923378009,2.56980562210084, State.safe
15.0592811107636,-0.000136603766909,-0.031036370571572,11.3404475352378,2.02225565910339,0.327259182929993,1.97349929809748,0.310582776465462,-0.007877798273964,-9.59906174102798E-05,-1,4.41173315048218,3.75648140907288,2.45741939544678,2.57667207717896, State.safe
15.1697173118591,-0.000116113200305,0.002761786650422,11.5171213527111,2.05621886253357,0.333158671855927,1.97350859642039,0.310284375306318,-0.009080375598648,-9.09579612198286E-05,-1,4.38227605819702,3.79023480415344,2.4532659053803,2.58346390724182, State.safe
15.2876431941986,-2.04904023107613E-05,0.021337209795809,11.6985594222128,2.091068983078,0.33921405673027,1.97351837158275,0.309960765962235,-0.009847544996129,-8.53931560413912E-05,-1,4.35284423828127,3.82403039932252,2.44915556907655,2.59025716781617, State.safe
15.4014682769775,6.14713947953099E-05,0.030989608718468,11.8847776395884,2.1267945766449,0.345468163490295,1.97352647781808,0.309662016640021,-0.010294447357919,-8.02188733359799E-05,-1,4.32344532012941,3.85786390304567,2.44504690170289,2.59709334373479, State.safe
15.5153858661652,0.000122943331339,0.034997710203291,12.0614373684016,2.16064476966858,0.351459383964539,1.97353482246465,0.309356510050762,-0.010600812289831,-7.35167559469119E-05,-1,4.29407930374146,3.89173102378847,2.44091439247134,2.60399508476262, State.safe
15.6273770332336,0.000122942821427,0.036008661731025,12.2428769102278,2.19536399841309,0.35768049955368,1.97354984283455,0.309050510686554,-0.010884233431096,-6.57689379295334E-05,-1,4.26475143432617,3.95956206321718,2.43253564834596,2.61804676055918, State.safe
15.7445969581604,0.000157094231866,0.035187808153797,12.4290950734242,2.23094773292541,0.364139467477798,1.97355628013672,0.308736526428164,-0.011174413327018,-5.93243385083042E-05,-1,4.20620965957642,3.99352550506592,2.42828059196473,2.62520337104802, State.safe
15.8528807163239,6.14722557375693E-05,-0.070343011685337,12.6009888568014,2.26375675201416,0.370141446590424,1.9735628366483,0.30844416832994,-0.012396187934322,-4.44195211457554E-05,-1,4.17699193954468,4.0275239944458,2.42399501800538,2.63243722915651, State.safe
15.9694530963898,-0.000136603689741,-0.028747555441011,12.7872011085434,2.2992947101593,0.376524567604065,1.97356653213509,0.308120235136735,-0.014525030406659,-3.11598232656252E-05,-1,4.14778041839602,4.06158542633057,2.41979908943181,2.63962244987489, State.safe
16.0877740383148,-0.000102452782946,0.004355472435882,12.9734206707191,2.33481574058533,0.382825762033462,1.97356975078593,0.307787531675511,-0.015751959739228,-3.58434190275148E-05,-1,4.11857509613042,4.09570980072022,2.41570758819585,2.64674687385559, State.safe
16.2034792900085,-1.36603273132936E-05,0.021443925615241,13.1596398557221,2.37030363082886,0.38912558555603,1.97357416153201,0.307455160156521,-0.016475281033162,-3.87331238016486E-05,-1,4.08938837051393,4.12988662719727,2.41165328025819,2.65388083457948, State.safe
16.3203999996185,6.14717498631165E-05,0.029998345711335,13.3458518440212,2.40574932098389,0.395464479923248,1.97357809543617,0.307124509148332,-0.016922884132436,-3.8681631849613E-05,-1,4.06022596359256,4.16410636901858,2.40759682655346,2.66106128692627, State.safe
16.4394857883453,0.000122943206168,0.033531764097461,13.5320654196242,2.44114708900452,0.401863008737564,1.97358238697076,0.306791629113126,-0.017304644053205,-3.60880403604824E-05,-1,4.03109455108645,4.1983699798584,2.40351843833925,2.66830921173106, State.safe
16.5546290874481,0.000122943651866,0.034249636619944,13.7182795743134,2.47649550437927,0.408329725265503,1.97359073162089,0.306461863737209,-0.017594320956291,-3.21740699291695E-05,-1,3.97292757034302,4.26701164245606,2.39525055885326,2.68304944038391, State.safe
16.6636459827423,6.14712810882934E-05,-0.067962627893494,13.8901739646528,2.50908589363098,0.414336502552033,1.97359418869021,0.306154976730998,-0.018770766315559,-1.44496543725836E-05,-1,3.94388866424563,4.30139350891113,2.39107036590581,2.69053435325627, State.safe
16.7733724117279,-0.000129773777333,-0.02911376656295,14.0668369695784,2.54167509078979,0.420241564512253,1.97359466552924,0.305831125524428,-0.020789957964421,-3.48802387861724E-07,-1,3.91484785079958,4.3358497619629,2.38698530197148,2.69796824455263, State.safe
16.8876740932465,-0.000102452840088,0.004440621703632,14.2482771195313,2.57696580886841,0.42655935883522,1.9735940694814,0.305490771278102,-0.021982199951951,-1.26571858345415E-05,-1,3.88580656051639,4.37037706375123,2.38299465179463,2.7053520679474, State.safe
17.0027322769165,-1.36604672979162E-05,0.021745905661967,14.4297216558927,2.61132001876831,0.432712614536285,1.97359597683055,0.305153146783178,-0.022650262964706,-2.18341083382256E-05,-1,3.85677790641789,4.40496253967286,2.37903499603276,2.71275186538698, State.safe
17.1169180870056,6.14716417063915E-05,0.030357317292406,14.6111662595988,2.64563417434692,0.438902795314789,1.97359800338766,0.304812287052879,-0.023123185355722,-2.58553573075915E-05,-1,3.82777237892152,4.43959903717042,2.37506866455089,2.72020435333253, State.safe
17.232527256012,0.00012294321356,0.033959891283289,14.7973761333849,2.68080282211304,0.445314586162567,1.9736001491548,0.304466917888812,-0.023438140241784,-2.64075479208259E-05,-1,3.79879212379456,4.47428226470948,2.37107658386241,2.72772955894472, State.safe
17.3448569774628,0.000122942907637,0.03458421083258,14.9740555768429,2.7141215801239,0.451460510492325,1.97360217571319,0.304135781884576,-0.02374824698864,-2.52087538683554E-05,-1,3.76983833312989,4.50901174545289,2.36704683303838,2.7353367805481, State.safe
17.456823348999,0.000157094069688,0.033576795062732,15.1554926300127,2.7482922077179,0.457837909460068,1.97360432148049,0.303806697985258,-0.024036670657771,-2.31416179303778E-05,-1,3.74091243743897,4.54378652572633,2.36297607421876,2.74303269386292, State.safe
17.5718522071838,0.000157094172234,0.031714153741191,15.3321586687315,2.78151726722717,0.464109063148499,1.97360849380598,0.303461544799454,-0.024344619135396,-2.03005547518842E-05,-1,3.68314433097848,4.61347436904907,2.35470986366283,2.75868773460391, State.safe
17.6835577487946,6.14711473722583E-05,-0.076507572510345,15.518384499824,2.81649732589722,0.470751345157623,1.97361075878327,0.303128181035574,-0.025660985039298,3.37348683387972E-06,-1,3.65429472923284,4.64839553833008,2.35053563117987,2.76662778854371, State.safe
17.7988073825836,-0.000150263681869,-0.033416743052008,15.6950513305084,2.849689245224,0.476931869983673,1.97360897064247,0.302780729937145,-0.027799043649931,2.07774555747164E-05,-1,3.62542963027957,4.68340396881104,2.34646630287172,2.77450656890882, State.safe
17.9135689735413,-0.00012294339032,2.91470144616194E-05,15.8765083339636,2.88376879692078,0.483193814754486,1.97360658645682,0.302422448034935,-0.029067552571052,2.14607871384942E-06,-1,3.59655141830445,4.71849775314334,2.34250354766847,2.78232741355899, State.safe
18.0301916599274,-3.4150895069777E-05,0.017981854214271,16.0627155023343,2.91871666908264,0.489608436822891,1.97360670566561,0.302056041226184,-0.02985026842688,-1.30491380332387E-05,-1,3.56767702102665,4.75366353988653,2.33857917785646,2.79015707969667, State.safe
18.1435782909393,3.41508299530386E-05,0.026795358464777,16.2441664228412,2.95272850990295,0.495886594057083,1.97360801696851,0.301701782788933,-0.030334377284452,-1.94322146853665E-05,-1,3.53881454467775,4.78889179229737,2.3346564769746,2.79803276062013, State.safe
18.2575542926788,9.56226506166001E-05,0.03072468517709,16.4303839196897,2.98758912086487,0.502379655838013,1.97361016273506,0.301342972442577,-0.030748519850302,-2.06310141948052E-05,-1,3.50997042655945,4.82417631149293,2.33071422576915,2.80597543716433, State.safe
18.3667387962341,0.00012294288642,0.031640957386143,16.6022701212602,3.01972341537476,0.508426010608673,1.9736123085022,0.301005560863808,-0.031073817582969,-1.9117502233712E-05,-1,3.48114562034608,4.85951948165894,2.32674145698563,2.81399703025824, State.safe
18.4796750545502,0.000122942824106,0.030980690960475,16.783715046481,3.05359601974487,0.514865338802338,1.9736143350607,0.30064934834601,-0.031414307392617,-1.61290990945417E-05,-1,3.45234084129336,4.89491415023804,2.32273244857789,2.82210230827332, State.safe
18.5947518348694,0.000122943274833,0.029405864403589,16.9651587496458,3.08742117881775,0.521362006664276,1.9736183881769,0.300285999732923,-0.031760798856501,-1.23224199342076E-05,-1,3.39479231834415,4.96587657928467,2.31460452079778,2.83856773376465, State.safe
18.7057504653931,3.41511435057358E-05,-0.074401832338131,17.1418187329424,3.12031936645508,0.527713596820831,1.97362029552553,0.299936871642911,-0.033066171750777,1.69893883139594E-05,-1,3.36604166030886,5.00144910812379,2.31050348281861,2.84691190719607, State.safe
18.8205914497376,0.27901999513515,-0.034301748579299,17.3235843445938,3.15416526794434,0.534128367900848,1.97362387180381,0.301627325933478,-0.035228890791065,0.000571387354285,-1,3.33727407455448,5.03716564178467,2.30650115013124,2.85520505905155, State.safe
18.933580160141,0.21203636800353,-0.001953125521111,17.5051336462877,3.18849325180054,0.540605485439301,1.97355747222921,0.306862188355258,-0.036505879430501,0.001372250495479,-1,3.30818700790405,5.07329845428467,2.3025155067444,2.86353349685671, State.safe
19.0424475669861,0.085602746458482,0.012737149445832,17.6770690037842,3.22142887115479,0.546862840652466,1.97340583801792,0.309183358795243,-0.037316390682082,0.000640248181298,-1,3.27854537963869,5.10990715026856,2.29841876029969,2.87201738357556, State.safe
19.1555111408234,0.033324489313441,0.016996015630129,17.8537610184359,3.2554292678833,0.553366899490356,1.97333538532289,0.309849386645957,-0.038004431010542,-2.78751940641087E-06,-1,3.24868440628053,5.14687967300416,2.29424977302557,2.88061809539798, State.safe
19.2726798057556,0.012362642611619,0.016696112687319,18.039992924824,3.29130220413208,0.560274004936218,1.97332990169552,0.309864897659113,-0.038670680392981,-0.000299800973153,-1,3.21873092651368,5.18403625488282,2.2900381088257,2.88930964469911, State.safe
19.3829057216644,0.004849434278109,0.015072203215259,18.2166687979716,3.32532644271851,0.566860973834991,1.97335588932046,0.309632023761955,-0.039297653523397,-0.000367291097064,-1,3.18874263763434,5.22130823135377,2.28580188751222,2.89807510375977, State.safe
19.4957904815674,0.00189196217463,0.013280849121655,18.3981178138437,3.3602409362793,0.573651254177094,1.9733922481537,0.309292531271272,-0.040001673097542,-0.000345474021742,-1,3.15874004364015,5.25867176055909,2.28154921531678,2.90690732002259, State.safe
19.6065142154694,0.000792301923901,0.011758555250005,18.5700111063473,3.39328646659851,0.580102443695068,1.97346138954181,0.30892108677908,-0.040743615265984,-0.000296332058497,-1,3.12873435020448,5.33364772796633,2.27301669120797,2.92474865913403, State.safe
19.7185633182526,0.000334679322847,0.010402364433081,18.7514521992206,3.42813229560852,0.586927115917206,1.97348928451587,0.308541110892677,-0.041460329564755,-0.000244068622123,-1,3.06872200965885,5.371253490448,2.26874446868898,2.93375062942509, State.safe
19.8351905345917,6.14715053116834E-05,-0.099609363796262,18.9376638109042,3.4638683795929,0.593914330005646,1.9735136032108,0.308124413145223,-0.043309172001892,-0.000157605245477,-1,3.03871035575868,5.40894460678101,2.26448702812196,2.94279360771185, State.safe
19.9578423500061,-0.00022539630648,-0.049926744808637,19.1334392682401,3.50146651268005,0.601063013076782,1.9735271930703,0.307686200522644,-0.046043259867737,-9.35255302465521E-05,-1,3.00865054130556,5.44676303863526,2.26036691665661,2.95174407958985, State.safe
20.0838012695313,-0.00018441518794,-0.012603761274069,19.3339837331289,3.53999471664429,0.608236908912659,1.97353613376619,0.307209889673725,-0.047765233785157,-0.000100425058918,-1,2.97853875160217,5.48471260070801,2.25639700889589,2.96059370040894, State.safe
20.2034895420074,-8.87925012485989E-05,0.006341609937527,19.5249667187258,3.57575011253357,0.614852666854858,1.97354590892802,0.306768490727818,-0.04883562697097,-0.000103306141682,-1,2.94840002059937,5.52276992797852,2.25250434875491,2.96941995620731, State.safe
20.3184242248535,-6.83039442102136E-06,0.016332018498382,19.7064077569475,3.61146998405457,0.621468424797058,1.97355639934554,0.30633075808346,-0.049597654299734,-9.7988813649863E-05,-1,2.91824579238893,5.56092071533204,2.24864435195925,2.97826623916635, State.safe
20.4356286525726,6.14716942126034E-05,0.021682161790939,19.8926371513863,3.6471471786499,0.628108024597168,1.97357654571542,0.305897168737636,-0.05018042291226,-8.67004055180587E-05,-1,2.85792684555056,5.6374802589417,2.24092674255384,2.99611186981203, State.safe
20.5584986209869,-2.04916518082416E-05,-0.080535894016748,20.0884067655729,3.68461680412292,0.635092318058014,1.97358500957505,0.305435058886283,-0.051815792009251,-2.71426433755551E-05,-1,2.8277599811554,5.67589139938355,2.23705768585217,3.00512528419504, State.safe
20.6746582984924,-0.000191245373592,-0.031524658723784,20.2746163228617,3.72027611732483,0.641591846942902,1.97358667850533,0.304992899562161,-0.054017907968463,5.95294841332361E-06,-1,2.79755091667181,5.7144241333008,2.23329114913942,3.01408648490907, State.safe
20.7883343696594,-0.000136603770194,0.001437913855822,20.4560509028881,3.75501847267151,0.647838115692139,1.9735856056214,0.304549616028125,-0.055253276642429,-2.51227120315889E-05,-1,2.76729369163518,5.75309038162231,2.22964286804201,3.02298021316536, State.safe
20.9045333862305,-3.4150701036063E-05,0.019544997827029,20.6422657989579,3.79064536094666,0.654237151145935,1.9735877513887,0.304094173512735,-0.05602203940079,-4.80356975458562E-05,-1,2.73701071739198,5.79186248779297,2.2260422706604,3.03188133239746, State.safe
21.0137586593628,3.41506426617029E-05,0.028347421286566,20.8141664276674,3.82349181175232,0.660169720649719,1.97359240055156,0.303674371129722,-0.056487049735702,-5.58593346795533E-05,-1,2.70671772956848,5.83072710037232,2.22244739532471,3.04083132743838, State.safe
21.125372171402,9.56224524554952E-05,0.032594290958396,20.9908339055404,3.8572039604187,0.666311085224152,1.9735983610155,0.30323677097355,-0.056823987914119,-5.42699963261839E-05,-1,2.67642092704778,5.86968231201172,2.21883249282849,3.04985356330877, State.safe
21.236355304718,0.000122943447437,0.033822888663988,21.1674978824726,3.89086532592773,0.672505736351013,1.97360491752896,0.302813484008079,-0.057142050793629,-4.78883521282114E-05,-1,2.64612650871279,5.90872192382813,2.21518564224255,3.05896282196053, State.safe
21.3507137298584,0.000122943457281,0.033280898198384,21.3489379631508,3.92538261413574,0.678926050662994,1.97361409664168,0.302365029671486,-0.057427153493173,-3.99889213440474E-05,-1,2.58554387092594,5.98704338073732,2.20777273178106,3.07746195793154, State.safe
21.4668338298798,6.14725895449831E-05,-0.063293435094358,21.5351577338848,3.95985341072083,0.685381233692169,1.97361791133997,0.301917459156494,-0.058613944220668,9.77392483036965E-06,-1,2.55525350570683,6.02633666992189,2.204017162323,3.08684372901931, State.safe
21.5753407478333,-0.00010928321967,-0.025848388872125,21.7070515899197,3.99251770973206,0.691404402256012,1.97361481189799,0.301483452795778,-0.060482741902548,4.64687582280021E-05,-1,2.52491569519045,6.06575918197634,2.20034217834473,3.09619736671459, State.safe
21.6913261413574,-8.87924408481261E-05,0.004879152615562,21.8932668933983,4.02880716323853,0.698022365570068,1.97361028194429,0.301022132467851,-0.061633398778931,1.08210879261605E-05,-1,2.49452662467957,6.10531854629517,2.19675779342657,3.10551524162294, State.safe
21.801851272583,-1.36604627850942E-05,0.019781038593219,22.0651589410343,4.06143999099731,0.703972935676575,1.9736095666893,0.300577046252723,-0.062316768409577,-1.73706011992181E-05,-1,2.46411252021791,6.14498949050905,2.19320487976076,3.11485862731952, State.safe
21.9124002456665,6.14713248503155E-05,0.027708083249633,22.2418216407662,4.09493827819824,0.710115134716034,1.97361135482793,0.300132412852117,-0.062783155066064,-3.1176761694951E-05,-1,2.43368172645571,6.18476533889771,2.18964743614197,3.124263048172, State.safe
22.0213882923126,9.56227222874181E-05,0.031110227530716,22.4184825693917,4.12838935852051,0.716299593448639,1.97361445427122,0.299700344942179,-0.063135303240271,-3.41608720191289E-05,-1,2.40324306488042,6.22463655471804,2.18606710433982,3.13374519348151, State.safe
22.1386094093323,0.296539472985994,0.031583787643463,22.6045246379094,4.16365385055542,0.722897231578827,1.97361874580626,0.301436630861724,-0.063478688282018,0.000539536529686,-1,2.37279844284065,6.2646017074585,2.18245434761047,3.1433165073395, State.safe
22.256409406662,0.213866867280741,0.030172687443528,22.7907883305045,4.19938898086548,0.729769945144653,1.97362780570989,0.307155233472473,-0.063835254084631,0.001370082027279,-1,2.34227395057679,6.30487775802614,2.1787567138672,3.1530277729035, State.safe
22.365348815918,0.086237961483,0.027620147101317,22.9627540450406,4.23276233673096,0.736344516277313,1.97336232662338,0.30930634696121,-0.064251375920594,0.000618143356405,-1,2.27970218658449,6.38680553436287,2.17067146301271,3.17330241203314, State.safe
22.4753637313843,0.033597701119349,0.020103004821711,23.1394510672416,4.26719474792481,0.743218541145325,1.97332739830039,0.309906588325812,-0.064724168308669,-2.15234485949622E-05,-1,2.24805188179018,6.42832994461067,2.16642570495628,3.18372726440434, State.safe
22.5903759002686,0.012362640289444,-0.100189202693428,23.3256630835988,4.30352973937988,0.750494301319122,1.97334158420593,0.309838271711984,-0.066447722159062,-0.000245348899625,-1,2.21630954742436,6.47004318237306,2.16214418411257,3.19424748420716, State.safe
22.7045454978943,0.004576226432613,-0.060241706480218,23.5023245439868,4.33806896209717,0.757243454456329,1.97336602211082,0.309509420733238,-0.069102857084407,-0.000269672367722,-1,2.18445467948917,6.51195669174197,2.15798139572147,3.20470499992371, State.safe
22.8146679401398,0.001618754359164,-0.028472898295727,23.678988650017,4.37264490127564,0.763862192630768,1.97339308261929,0.309080471628808,-0.070863313166834,-0.000297773949569,-1,2.15249562263492,6.55406665802004,2.15396881103528,3.21506643295293, State.safe
22.9297156333923,0.000553245528904,-0.009826660622005,23.8604337824537,4.40815830230713,0.770588576793671,1.97342324256903,0.308599503816468,-0.072197041874429,-0.000290761439828,-1,2.12046504020695,6.59633874893189,2.15004587173468,3.22539997100831, State.safe
23.037401676178,0.000184415094557,0.00076502335823,24.0370972845305,4.44271659851074,0.777105152606964,1.97345280647438,0.308123108482691,-0.07322513471196,-0.000263654073933,-1,2.08838224411012,6.63875293731697,2.14617443084729,3.23574066162111, State.safe
23.147378206253,9.56226679888954E-05,0.006820831910541,24.2089897146794,4.47631788253784,0.783434450626373,1.97347974777223,0.307639675147239,-0.074073056550694,-0.000228009288548,-1,2.05625796318061,6.68130254745483,2.14233136177068,3.2461125850678, State.safe
23.2566673755646,6.14717309898541E-05,0.010240268199043,24.3808832633936,4.50988674163818,0.789764225482941,1.97350418567697,0.307160535623823,-0.074834423971439,-0.000192992491066,-1,2.02409863471987,6.72398090362549,2.13850283622747,3.25652980804443, State.safe
23.3670847415924,6.14719530069827E-05,0.012055196889095,24.5575514932023,4.54435396194458,0.796276986598969,1.97352492809341,0.306666333884202,-0.075566977389933,-0.000159613628057,-1,1.99190545082109,6.76678419113161,2.13467836380006,3.26700234413152, State.safe
23.4783756732941,-1.36603978727934E-05,0.012771596445783,24.4361150192637,4.57878398895264,0.802800714969635,1.97354221344018,0.306563238658603,-0.074680405016903,-0.000130486354465,-1,1.95967674255375,6.8097004890442,2.13084936141969,3.27752971649186, State.safe
23.5898129940033,-0.0001366035352,0.012741167184508,23.7287180101651,4.61317586898804,0.809336662292481,1.97356903553042,0.30719575296694,-0.070648713389952,-0.000105516272015,-1,1.87840831279759,6.83674049377443,2.10396575927747,3.26936006546024, State.safe
23.7061059474945,0.000519093021795,-0.131500251750642,22.6013998007289,4.64940500259399,0.816201448440552,1.97358131408702,0.308252411649823,-0.065686851464235,-4.52858284916147E-06,-1,1.83108615875245,6.82436370849616,2.08235168457033,3.25253677368172, State.safe
23.8174910545349,0.007724958274346,-0.94702154996556,21.3176452874884,4.68392038345337,0.822281956672668,1.97375369072233,0.309560072028694,-0.06856008798546,0.000563724141102,-1,1.78256499767309,6.80568599700928,2.05935621261597,3.23269510269166, State.safe
23.9268372058868,0.023837370978303,-1.0108337518928,19.9106643794871,4.71906566619873,0.826704561710358,1.97380280494696,0.311384500025297,-0.080076332340141,0.001282471115701,-1,1.73375225067146,6.7855749130249,2.03717899322511,3.21069502830516, State.safe
24.0489571094513,0.032347787119937,-0.967620683032774,18.3075694090648,4.75789451599121,0.829242527484894,1.97365128994054,0.314106119563074,-0.092126129687499,0.001425164984539,-1,1.68517589569097,6.76688909530641,2.01710271835329,3.18720078468324, State.safe
24.1641592979431,0.034854440479662,-0.896178986886011,16.7383137236722,4.79551506042481,0.829576909542084,1.97347927093693,0.317214885724994,-0.101429198661965,0.001303800730966,-1,1.637255191803,6.7511501312256,1.99966108798981,3.16327238082894, State.safe
24.2834582328796,0.034150957831852,-0.790161089860267,15.0582983040691,4.83577632904053,0.827893137931824,1.9733067750934,0.320651010595863,-0.109577893143171,0.001026577781886,-1,1.59022629261037,6.73918104171753,1.98499751091005,3.13943099975586, State.safe
24.3942947387695,0.031555471096362,-0.672698902086855,13.4892350442693,4.87351417541504,0.824673593044281,1.97314739227358,0.324148152750514,-0.11435822033104,0.000689876789693,-1,1.54422152042394,6.73139095306397,1.97309255599989,3.11604475975038, State.safe
24.5087285041809,0.027621281560474,-0.541046195102459,11.8689687449412,4.91264963150024,0.819945573806763,1.97291779518137,0.327708871093834,-0.116905798397922,0.000303694716422,-1,1.45552432537081,6.72894859313965,1.95703268051148,3.07172846794143, State.safe
24.6183350086212,0.024165216670261,-0.576629707931706,10.286262249918,4.95102977752686,0.814175069332123,1.97290849685673,0.331057987377168,-0.118463355083206,9.61387559073046E-05,-1,1.4128687381745,6.7343454360962,1.95256698131567,3.05129957199098, State.safe
24.7363255023956,0.021303358366502,-0.30661004014596,8.61484254474812,4.99171924591064,0.806904792785645,1.97284233570117,0.334655797281701,-0.117699578586687,-0.000193772037164,-1,1.37130224704744,6.74414634704591,1.9502774477005,3.03192019462585, State.safe
24.8508515357971,0.014070187449068,-0.102386484067875,6.94150710185184,5.03253507614136,0.798901498317719,1.97284030914319,0.338042148167469,-0.111687193746085,-0.000695759197697,-1,1.33081567287447,6.75831079483033,1.94994783401495,3.01400923728947, State.safe
24.9682838916779,0.006686755350651,0.043696641842397,5.26708522072012,5.07337379455566,0.790649235248566,1.97290647029895,0.341047125239315,-0.102273920907613,-0.001020629773848,-1,1.29140114784241,6.77678394317627,1.95120370388033,2.99788761138917, State.normal
25.0844810009003,0.000553245144293,0.154206895080402,3.59202929858069,5.11313915252686,0.782695889472961,1.97301077842756,0.343593838729349,-0.090252402136089,-0.001137286191806,-1,1.25302159786227,11.5236282348633,1.95376765727997,2.98375749588015, State.normal
25.1927037239075,-0.003893206588682,0.234458943780093,2.08845961843815,5.15075969696045,0.775460720062256,1.9731320142746,0.345444716979525,-0.077603665004273,-0.001109017524868,-1,1.2156249284745,11.5392761230469,1.95743823051454,2.97177386283898, State.normal
25.3093836307526,-0.007984490860768,0.30931186169712,0.369871147802059,5.19144868850708,0.768147647380829,1.97325563430827,0.347063857657842,-0.06174302880876,-0.000985661754385,-1,1.17914950847626,11.5623178482056,1.96205985546119,2.96206474304204, State.normal
25.4254493713379,-0.0111400385816,0.368717264015452,-1.26293943417133,5.2320728302002,0.76155149936676,1.97347450256357,0.348038346010894,-0.045022701141554,-0.000803111761343,-1,1.10868167877201,11.6307258605957,1.97367155551914,2.94989371299745, State.normal
25.5406234264374,-0.013728678472293,0.418661977684109,-2.89581338012395,5.27160835266113,0.755952835083008,1.97355890274166,0.348481165058028,-0.027387294710317,-0.000594847777393,-1,1.0745337009431,11.6762495040894,1.98047518730164,2.94761562347428, State.normal
25.6523377895355,-0.017116457118167,0.631280596073671,-4.52874944036954,5.31112766265869,0.751330494880676,1.97366595268301,0.348361237826188,-0.007641378821936,-0.000387623877032,-1,1.04099750518799,11.7294645309448,1.98787367343909,2.94806599617004, State.normal
25.7644319534302,-0.021774637760382,0.611133833426059,-6.07574772213628,5.34858751296997,0.748176336288452,1.97371172905251,0.34755105940356,0.014027757930863,-0.00014103986905,-1,1.00797927379609,11.7905321121216,1.99553894996646,2.95139479637147, State.normal
25.8843786716461,-0.023338756754308,0.592095420698841,-7.83768637106756,5.39131450653076,0.74607765674591,1.97371494770184,0.345948330188753,0.036743468388842,0.000116758099466,-1,0.975386500358603,11.8596324920654,2.00340342521668,2.95775699615479, State.normal
26.0053234100342,-0.023550492257883,0.590948451736441,-9.51371658265174,5.43205165863037,0.745508849620819,1.97370111942306,0.343657971466627,0.059226420869779,0.00033966373303,-1,0.943136692047218,11.9369707107544,2.01155066490174,2.96718120574967, State.normal
26.1198258399963,-0.023652945934975,0.598665663821554,-11.1897434243891,5.47292327880859,0.746323466300964,1.97367048263691,0.340839352129806,0.08088747193778,0.000526300922502,-1,0.91114473342899,11.4088144302368,2.02000880241394,2.97969150543221, State.normal
26.2307302951813,-0.023912489646491,0.611091225937813,-12.7798340284249,5.51186323165894,0.748386085033417,1.97362565994296,0.33753162880651,0.101791903916531,0.000683211255819,-1,0.879319906234812,7.56372451782227,2.02879190444948,2.99534368515015, State.normal
26.3476507663727,-0.024356448862866,0.626713602034665,-14.4558286236198,5.55312442779541,0.751939535140991,1.97349452972425,0.333322403657784,0.124208146554389,0.000833280675579,-1,0.815792560577544,7.43678188323975,2.04734611511236,3.0364031791687, State.normal
26.4614152908325,-0.026712879669356,0.884113368110489,-16.0888889677664,5.59360647201538,0.756853461265564,1.97349929809749,0.328749709769659,0.147975366808761,0.001263467827812,-1,0.783882260322665,7.25412368774418,2.05717778205894,3.06219959259042, State.emergency
26.5724878311157,-0.03145985762489,0.810965403727455,-17.6789340078865,5.63343000411987,0.763377189636231,1.9733442068103,0.323299265041556,0.173619634457669,0.001651585102081,-1,0.751647233963028,6.63854122161866,2.06689715385447,3.0917048454285, State.emergency
26.6944813728333,-0.031514498075706,0.74308950074867,-19.441007232909,5.67805528640747,0.772543013095856,1.9731446504613,0.316731224187116,0.198973508043661,0.001528886146843,-1,0.718973696231851,6.11567401885988,2.05293536186235,3.12520885467544, State.emergency
26.8084146976471,-0.025374155304945,0.100053467893418,-21.074091593425,5.7198166847229,0.782512485980987,1.97286629676864,0.309908016046766,0.216338165750725,0.000339523423463,-1,0.68579322099692,5.66581106185916,1.80885314941433,3.16259837150575, State.emergency
26.923757314682,0.023926212254656,-4.74158044602259,-22.7060687442544,5.76111459732056,0.791584670543671,1.97336506843602,0.30338374178613,0.180854747967505,-0.007319583091885,-1,0.652205288410188,5.27567911148074,1.5967619419098,3.20474052429203, State.emergency
27.0364167690277,0.145018441695288,-7.37894367192478,-24.3347858138711,5.7986011505127,0.791558802127838,1.98285603523296,0.30118432298107,0.070568152468583,-0.009294284507632,-1,0.619612634182051,4.94309806823733,1.4192329645158,3.26093626022343, State.emergency
27.1506767272949,0.24417261858873,-8.25052786859065,-25.9683940078267,5.82977151870728,0.776901066303253,1.99182569980672,0.304808109856973,-0.073337143479676,0.00589257851243,-1,0.590941071510374,4.67276573181153,1.2693588733674,3.30907678604126, State.emergency
27.270001411438,0.296143383570348,-7.91047057233905,-27.6529989511088,5.85410261154175,0.744945645332336,1.99177086353475,0.314577176202851,-0.229085221737791,0.026850152760744,-1,0.551748871803537,4.29968404769898,1.0431334972383,3.34869170188909, State.emergency
27.3834009170532,0.314755642322781,-8.66270122852883,-29.2561561529193,5.86972141265869,0.699068427085876,1.99148499965724,0.329122994990863,-0.378483699037685,0.046020045876503,-1,0.542576432228119,4.18228721618652,0.966597557067907,3.35446500778212, State.emergency
27.5043659210205,0.315240600976652,-6.14499385950644,-31.0772296797039,5.87797117233276,0.628535687923431,1.97855246067169,0.349236256578113,-0.521679909788016,0.052731074392796,-1,0.541419744491639,4.10369396209742,0.905924439430289,3.32841634750371, State.emergency
27.6185023784637,0.262784617010935,-4.50439742273791,-32.6819100123858,5.87844276428223,0.553725481033325,1.96684193611173,0.371136711112363,-0.614839742638002,0.037363592535257,-1,0.547726392746103,4.05517673492435,0.862788915634193,3.29313278198246, State.emergency
27.7376251220703,0.200349950550979,-3.21594276738751,-34.4125501236213,5.87364530563355,0.463463366031647,1.95959854126019,0.394713268586142,-0.681769633118429,0.018446832895279,-1,0.560167133808158,4.02827310562137,0.833075821399973,3.25460267066959, State.emergency
27.8478374481201,0.151917043115568,-2.32400555417745,-35.9665924059747,5.86578130722046,0.376319497823715,1.95542705059105,0.417155469359241,-0.720300734764398,0.003751527983695,-1,0.57780718803412,4.01694107055667,0.812824010849045,3.21210122108463, State.emergency
27.9623174667358,0.109535740946858,-1.60601782693892,-37.6473403531408,5.85449123382568,0.277587205171585,1.95349848270445,0.440242920392067,-0.745418936017484,-0.008161270990968,-1,0.59991914033895,4.01669931411743,0.799376308918006,3.16607618331913, State.emergency
28.0774719715118,0.077119629634269,-1.08554061033714,-39.3262364812474,5.84115028381348,0.175857231020927,1.9541504383089,0.463522869383181,-0.756388389657706,-0.015511833131313,-1,0.655390560626996,4.03756713867188,0.785842716693934,3.06636333465577, State.emergency
28.1884968280792,0.054689309312103,-0.732910124944258,-40.8749693213148,5.82757568359375,0.080245338380337,1.95573139190687,0.484650813347427,-0.758861019618102,-0.01925465092063,-1,0.688018202781778,4.05487012863162,0.783349335193696,3.01363229751588, State.emergency
28.3014376163483,0.037477248621185,-0.522216662023883,-42.5090465978411,5.8123631477356,-0.0217728279531,1.95767247676919,0.506430791753541,-0.754777059999004,-0.020241592079401,-1,0.723631143570002,4.07518911361695,0.782656669616706,2.95941400527954, State.emergency
28.419417142868,0.0245955041971,-0.24136353272816,-44.2285596707004,5.79611492156982,-0.127178207039833,1.95966148376672,0.52878492266879,-0.744870534689657,-0.019930506125093,-1,0.76220107078568,4.09788513183594,0.783283650875155,2.90375900268564, State.emergency
28.5327906608582,0.01440486990555,-0.077636715243746,-45.8189530447177,5.77999973297119,-0.23012538254261,1.96166300773666,0.549372693669108,-0.730626409890098,-0.019173339009285,-1,0.803676247596797,4.122428894043,0.784816563129478,2.84687089920048, State.emergency
28.6454939842224,0.006837016561204,0.023131582722327,-47.409076134964,5.76427698135376,-0.330307871103287,1.96360945701631,0.568746244765325,-0.713791473218402,-0.017483405768871,-1,0.848053932189969,4.14843463897708,0.786914408206979,2.78883361816411, State.emergency
28.7555103302002,0.001680225563741,0.086198989161552,-48.9991988619224,5.74866628646851,-0.430273741483688,1.96540737152109,0.586920148956011,-0.695430851532187,-0.015292941592634,-1,0.895439505577092,4.17568874359131,0.789359331131244,2.72959852218632, State.emergency
28.8655340671539,-0.001714375759864,0.125765621549134,-50.5892712088057,5.73366975784302,-0.527239918708801,1.9670065641406,0.604947379580068,-0.675268443698713,-0.012986296787858,-1,0.946044862270374,4.20409059524539,0.792030215263394,2.66903305053712, State.emergency
28.9859068393707,-0.004036641830923,0.151894872853612,-52.3082132434495,5.71689081192017,-0.637253761291504,1.96838998794785,0.623663860911646,-0.652363712169136,-0.010622336529195,-1,1.00015532970429,4.23360252380395,0.79484868049624,2.60692453384401, State.emergency
29.0956077575684,-0.005382195729883,0.167106862992564,-53.8982291856332,5.70206117630005,-0.736120641231537,1.97054386138946,0.640291417014751,-0.630525820481388,-0.008726521395147,-1,1.05814504623414,4.26421689987207,0.797774016857161,2.54300212860109, State.emergency
29.2076528072357,-0.006242799561408,0.177340270535509,-55.4882049505776,5.68755435943604,-0.834581732749939,1.97135376930393,0.65615444566745,-0.60785071830757,-0.007008044049144,-1,1.18766152858736,4.32887649536136,0.803860008716589,2.4082660675049, State.emergency
29.3227367401123,-0.007410758934405,0.263171494848626,-57.1211612399889,5.67302465438843,-0.93526417016983,1.97203087806704,0.671739544924065,-0.58343273034945,-0.005945165175945,-1,1.26037573814397,4.36299514770508,0.806999981403354,2.33656644821167, State.emergency
29.4386999607086,-0.009166112615704,0.235987263484376,-58.7971372443403,5.6586184501648,-1.03806591033936,1.97261953353897,0.686934288078925,-0.557446635743637,-0.004990549758077,-1,1.33923745155354,4.3983135223389,0.810104429721899,2.26131033897401, State.emergency
