Time ,pitch ,roll ,yaw ,X , Y ,Z ,VX ,VY ,VZ ,Range_Up ,Range_Front,Range_Back ,Range_Right ,Range_Left,State 
0.027026891708374023, -0.0, 0.0, 0.0, 0.0, 0.0, 0.02897280640900141, 0.0, 0.0, 0.0, -1.0, 0.8504025340080449, 0.14959751069546048, 0.7500001192092919, 15.069835662841829, State.safe
0.1439495086669922, -0.0, 0.0, 0.0, 0.0, 0.0, 0.02897280640900141, 0.0, 0.0, 0.0, -1.0, 0.8504025340080449, 0.14959751069546048, 0.7500001192092919, 15.069835662841829, State.safe
0.2543482780456543, -0.0, 0.0, 0.0, 0.0, 0.0, 0.02897280640900141, 0.0, 0.0, 0.0, -1.0, 0.8504025340080449, 0.14959751069546048, 0.7500001192092919, 15.069835662841829, State.safe
0.3731975555419922, -0.0, 0.0, 0.0, 0.0, 0.0, 0.02897280640900141, 0.0, 0.0, 0.0, -1.0, 0.8504025340080449, 0.14959751069546048, 0.7500001192092919, 15.069835662841829, State.safe
0.49330806732177734, -0.0, 0.0, 0.0, 0.0, 0.0, 0.02897280640900141, 0.0, 0.0, 0.0, -1.0, 0.8504025340080449, 0.14959751069546048, 0.7500001192092919, 15.069835662841829, State.safe
0.7235689163208008, -0.0, 0.0, 0.0, 0.0, 0.0, 0.02897280640900141, 0.0, 0.0, 0.0, -1.0, 0.8504025340080449, 0.14959751069546048, 0.7500001192092919, 15.069835662841829, State.safe
0.8463399410247803, -0.0, 0.0, 0.0, 0.0, 0.0, 0.02897280640900141, 0.0, 0.0, 0.0, -1.0, 0.8504025340080449, 0.14959751069546048, 0.7500001192092919, 15.069835662841829, State.safe
0.9562692642211914, -0.0, 0.0, 0.0, 0.0, 0.0, 0.02897280640900141, 0.0, 0.0, 0.0, -1.0, 0.8504025340080449, 0.14959751069546048, 0.7500001192092919, 15.069835662841829, State.safe
1.0622823238372803, -0.0, 0.0, 0.0, 0.0, 0.0, 0.02897280640900141, 0.0, 0.0, 0.0, -1.0, 0.8504025340080449, 0.14959751069546048, 0.7500001192092919, 15.069835662841829, State.safe
1.1795074939727783, -0.0, 0.0, 0.0, 0.0, 0.0, 0.02897280640900141, 0.0, 0.0, 0.0, -1.0, 0.8504025340080449, 0.14959751069546048, 0.7500001192092919, 15.069835662841829, State.safe
1.2913084030151367, -0.0, 0.0, 0.0, 0.0, 0.0, 0.02897280640900141, 0.0, 0.0, 0.0, -1.0, 0.8504025340080449, 0.14959751069546048, 0.7500001192092919, 15.069835662841829, State.safe
1.4062142372131348, -0.0, 0.0, 0.0, 0.0, 0.0, 0.02897280640900141, 0.0, 0.0, 0.0, -1.0, 0.8504025340080449, 0.14959751069546048, 0.7500001192092919, 15.069835662841829, State.safe
1.519235372543335, -0.0, 0.0, 0.0, 0.0, 0.0, 0.02897280640900141, 0.0, 0.0, 0.0, -1.0, 0.8504025340080449, 0.14959751069546048, 0.7500001192092919, 15.069835662841829, State.safe
1.6355583667755127, -0.0, 0.0, 0.0, 0.0, 0.0, 0.02897280640900141, 0.0, 0.0, 0.0, -1.0, 0.8504025340080449, 0.14959751069546048, 0.7500001192092919, 15.069835662841829, State.safe
1.7472591400146484, -0.0, 0.0, 0.0, 0.0, 0.0, 0.02897280640900141, 0.0, 0.0, 0.0, -1.0, 0.8504025340080449, 0.14959751069546048, 0.7500001192092919, 15.069835662841829, State.safe
1.8640928268432617, -0.0, 0.0, 0.0, 0.0, 0.0, 0.02897280640900141, 0.0, 0.0, 0.0, -1.0, 0.8504025340080449, 0.14959751069546048, 0.7500001192092919, 15.069835662841829, State.safe
1.9766101837158203, -0.0, 0.0, 0.0, 0.0, 0.0, 0.02897280640900141, 0.0, 0.0, 0.0, -1.0, 0.8504025340080449, 0.14959751069546048, 0.7500001192092919, 15.069835662841829, State.safe
2.087594747543335, -0.0, 0.0, 0.0, 0.0, 0.0, 0.02897280640900141, 0.0, 0.0, 0.0, -1.0, 0.8504025340080449, 0.14959751069546048, 0.7500001192092919, 15.069835662841829, State.safe
2.201749801635742, -0.0, 0.0, 0.0, 0.0, 0.0, 0.02897280640900141, 0.0, 0.0, 0.0, -1.0, 0.8504025340080449, 0.14959751069546048, 0.7500001192092919, 15.069835662841829, State.safe
2.3203327655792236, -0.0, 0.0, 0.0, 0.0, 0.0, 0.02897280640900141, 0.0, 0.0, 0.0, -1.0, 0.8504025340080449, 0.14959751069546048, 0.7500001192092919, 15.069835662841829, State.safe
2.436532735824585, -0.0, 0.0, 0.0, 0.0, 0.0, 0.02897280640900141, 0.0, 0.0, 0.0, -1.0, 0.8504025340080449, 0.14959751069546048, 0.7500001192092919, 15.069835662841829, State.safe
2.5523223876953125, -0.0, 0.0, 0.0, 0.0, 0.0, 0.02897280640900141, 0.0, 0.0, 0.0, -1.0, 0.8504025340080449, 0.14959751069546048, 0.7500001192092919, 15.069835662841829, State.safe
2.666487455368042, -0.0, 0.0, 0.0, 0.0, 0.0, 0.02897280640900141, 0.0, 0.0, 0.0, -1.0, 0.8504025340080449, 0.14959751069546048, 0.7500001192092919, 15.069835662841829, State.safe
2.776517152786255, -0.0, 0.0, 0.0, 0.0, 0.0, 0.02897280640900141, 0.0, 0.0, 0.0, -1.0, 0.8504025340080449, 0.14959751069546048, 0.7500001192092919, 15.069835662841829, State.safe
2.884871006011963, -0.0, 0.0, 0.0, 0.0, 0.0, 0.02897280640900141, 0.0, 0.0, 0.0, -1.0, 0.8504025340080449, 0.14959751069546048, 0.7500001192092919, 15.069835662841829, State.safe
2.997255802154541, -0.0, 0.0, 0.0, 0.0, 0.0, 0.02897280640900141, 0.0, 0.0, 0.0, -1.0, 0.8504025340080449, 0.14959751069546048, 0.7500001192092919, 15.069835662841829, State.safe
3.1106791496276855, -0.0, 0.0, 0.0, 0.0, 0.0, 0.02897280640900141, 0.0, 0.0, 0.0, -1.0, 0.8504025340080449, 0.14959751069546048, 0.7500001192092919, 15.069835662841829, State.safe
3.223356008529663, -0.0, 0.0, 0.0, 0.0, 0.0, 0.02897280640900141, 0.0, 0.0, 0.0, -1.0, 0.8504025340080449, 0.14959751069546048, 0.7500001192092919, 15.069835662841829, State.safe
3.3382768630981445, -0.0, 0.0, 0.0, 0.0, 0.0, 0.02897280640900141, 0.0, 0.0, 0.0, -1.0, 0.8504025340080449, 0.14959751069546048, 0.7500001192092919, 15.069835662841829, State.safe
3.453653573989868, -0.0, 0.0, 0.0, 0.0, 0.0, 0.02897280640900141, 0.0, 0.0, 0.0, -1.0, 0.8504025340080449, 0.14959751069546048, 0.7500001192092919, 15.069835662841829, State.safe
3.5708229541778564, -0.0, 0.0, 0.0, 0.0, 0.0, 0.02897280640900141, 0.0, 0.0, 0.0, -1.0, 0.8504025340080449, 0.14959751069546048, 0.7500001192092919, 15.069835662841829, State.safe
3.683218002319336, -0.0, 0.0, 0.0, 0.0, 0.0, 0.02897280640900141, 0.0, 0.0, 0.0, -1.0, 0.8504025340080449, 0.14959751069546048, 0.7500001192092919, 15.069835662841829, State.safe
3.797170639038086, -0.0, 0.0, 0.0, 0.0, 0.0, 0.02897280640900141, 0.0, 0.0, 0.0, -1.0, 0.8504025340080449, 0.14959751069546048, 0.7500001192092919, 15.069835662841829, State.safe
3.9123904705047607, -0.0, 0.0, 0.0, 0.0, 0.0, 0.02897280640900141, 0.0, 0.0, 0.0, -1.0, 0.8504025340080449, 0.14959751069546048, 0.7500001192092919, 15.069835662841829, State.safe
4.027896881103516, -0.0, 0.0, 0.0, 0.0, 0.0, 0.02897280640900141, 0.0, 0.0, 0.0, -1.0, 0.8504025340080449, 0.14959751069546048, 0.7500001192092919, 15.069835662841829, State.safe
4.145217418670654, -0.0, 0.0, 0.0, 0.0, 0.0, 0.02897280640900141, 0.0, 0.0, 0.0, -1.0, 0.8504025340080449, 0.14959751069546048, 0.7500001192092919, 15.069835662841829, State.safe
4.268216848373413, -0.0, 0.0, 0.0, 0.0, 0.0, 0.02897280640900141, 0.0, 0.0, 0.0, -1.0, 0.8504025340080449, 0.14959751069546048, 0.7500001192092919, 15.069835662841829, State.safe
4.3831870555877686, -0.0, 0.0, 0.0, 0.0, 0.0, 0.02897280640900141, 0.0, 0.0, 0.0, -1.0, 0.8504025340080449, 0.14959751069546048, 0.7500001192092919, 15.069835662841829, State.safe
4.502197027206421, -0.0, 0.0, 0.0, 0.0, 0.0, 0.02897280640900141, 0.0, 0.0, 0.0, -1.0, 0.8504025340080449, 0.14959751069546048, 0.7500001192092919, 15.069835662841829, State.safe
4.621389865875244, -0.0, 0.0, 0.0, 0.0, 0.0, 0.02897280640900141, 0.0, 0.0, 0.0, -1.0, 0.8504025340080449, 0.14959751069546048, 0.7500001192092919, 15.069835662841829, State.safe
4.739735841751099, -0.0, 0.0, 0.0, 0.0, 0.0, 0.02897280640900141, 0.0, 0.0, 0.0, -1.0, 0.8504025340080449, 0.14959751069546048, 0.7500001192092919, 15.069835662841829, State.safe
4.859803915023804, -0.0, 0.0, 0.0, 0.0, 0.0, 0.02897280640900141, 0.0, 0.0, 0.0, -1.0, 0.8504025340080449, 0.14959751069546048, 0.7500001192092919, 15.069835662841829, State.safe
4.980112791061401, -0.0, 0.0, 0.0, 0.0, 0.0, 0.02897280640900141, 0.0, 0.0, 0.0, -1.0, 0.8504025340080449, 0.14959751069546048, 0.7500001192092919, 15.069835662841829, State.safe
5.105298280715942, -0.0, 0.0, 0.0, 0.0, 0.0, 0.02897280640900141, 0.0, 0.0, 0.0, -1.0, 0.8504025340080449, 0.14959751069546048, 0.7500001192092919, 15.069835662841829, State.safe
5.224717855453491, -0.0, 0.0, 0.0, 0.0, 0.0, 0.02897280640900141, 0.0, 0.0, 0.0, -1.0, 0.8504025340080449, 0.14959751069546048, 0.7500001192092919, 15.069835662841829, State.safe
5.346190690994263, -0.0, 0.0, 0.0, 0.0, 0.0, 0.02897280640900141, 0.0, 0.0, 0.0, -1.0, 0.8504025340080449, 0.14959751069546048, 0.7500001192092919, 15.069835662841829, State.safe
5.470370292663574, -0.0, 0.0, 0.0, 0.0, 0.0, 0.02897280640900141, 0.0, 0.0, 0.0, -1.0, 0.8504025340080449, 0.14959751069546048, 0.7500001192092919, 15.069835662841829, State.safe
5.587676286697388, -0.0, 0.0, 0.0, 0.0, 0.0, 0.02897280640900141, 0.0, 0.0, 0.0, -1.0, 0.8504025340080449, 0.14959751069546048, 0.7500001192092919, 15.069835662841829, State.safe
5.697564363479614, -0.0, 0.0, 0.0, 0.0, 0.0, 0.02897280640900141, 0.0, 0.0, 0.0, -1.0, 0.8504025340080449, 0.14959751069546048, 0.7500001192092919, 15.069835662841829, State.safe
5.811580657958984, -0.0, 0.0, 0.0, 0.0, 0.0, 0.02897280640900141, 0.0, 0.0, 0.0, -1.0, 0.8504025340080449, 0.14959751069546048, 0.7500001192092919, 15.069835662841829, State.safe
5.924226760864258, -0.0, 0.0, 0.0, 0.0, 0.0, 0.02897280640900141, 0.0, 0.0, 0.0, -1.0, 0.8504025340080449, 0.14959751069546048, 0.7500001192092919, 15.069835662841829, State.safe
6.031702518463135, -0.0, 0.0, 0.0, 0.0, 0.0, 0.02897280640900141, 0.0, 0.0, 0.0, -1.0, 0.8504025340080449, 0.14959751069546048, 0.7500001192092919, 15.069835662841829, State.safe
6.147320508956909, -0.0, 0.0, 0.0, 0.0, 0.0, 0.02897280640900141, 0.0, 0.0, 0.0, -1.0, 0.8504025340080449, 0.14959751069546048, 0.7500001192092919, 15.069835662841829, State.safe
6.2625205516815186, -0.0, 0.0, 0.0, 0.0, 0.0, 0.02897280640900141, 0.0, 0.0, 0.0, -1.0, 0.8504025340080449, 0.14959751069546048, 0.7500001192092919, 15.069835662841829, State.safe
6.371358871459961, -0.0, 0.0, 0.0, 0.0, 0.0, 0.02897280640900141, 0.0, 0.0, 0.0, -1.0, 0.8504025340080449, 0.14959751069546048, 0.7500001192092919, 15.069835662841829, State.safe
6.483296155929565, -0.0, 0.0, 0.0, 0.0, 0.0, 0.02897280640900141, 0.0, 0.0, 0.0, -1.0, 0.8504025340080449, 0.14959751069546048, 0.7500001192092919, 15.069835662841829, State.safe
6.59410548210144, -0.0, 0.0, 0.0, 0.0, 0.0, 0.02897280640900141, 0.0, 0.0, 0.0, -1.0, 0.8504025340080449, 0.14959751069546048, 0.7500001192092919, 15.069835662841829, State.safe
6.71044921875, -0.0, 0.0, 0.0, 0.0, 0.0, 0.02897280640900141, 0.0, 0.0, 0.0, -1.0, 0.8504025340080449, 0.14959751069546048, 0.7500001192092919, 15.069835662841829, State.safe
6.8208723068237305, -0.0, 0.0, 0.0, 0.0, 0.0, 0.02897280640900141, 0.0, 0.0, 0.0, -1.0, 0.8504025340080449, 0.14959751069546048, 0.7500001192092919, 15.069835662841829, State.safe
6.932007312774658, -0.0, 0.0, 0.0, 0.0, 0.0, 0.02897280640900141, 0.0, 0.0, 0.0, -1.0, 0.8504025340080449, 0.14959751069546048, 0.7500001192092919, 15.069835662841829, State.safe
7.0476391315460205, -0.0, 0.0, 0.0, 0.0, 0.0, 0.02897280640900141, 0.0, 0.0, 0.0, -1.0, 0.8504025340080449, 0.14959751069546048, 0.7500001192092919, 15.069835662841829, State.safe
7.160411596298218, -0.0, 0.0, 0.0, 0.0, 0.0, 0.02897280640900141, 0.0, 0.0, 0.0, -1.0, 0.8504025340080449, 0.14959751069546048, 0.7500001192092919, 15.069835662841829, State.safe
7.274348258972168, -0.0, 0.0, 0.0, 0.0, 0.0, 0.02897280640900141, 0.0, 0.0, 0.0, -1.0, 0.8504025340080449, 0.14959751069546048, 0.7500001192092919, 15.069835662841829, State.safe
7.385247468948364, -0.0, 0.0, 0.0, 0.0, 0.0, 0.02897280640900141, 0.0, 0.0, 0.0, -1.0, 0.8504025340080449, 0.14959751069546048, 0.7500001192092919, 15.069835662841829, State.safe
7.501452922821045, -0.0, 0.0, 0.0, 0.0, 0.0, 0.02897280640900141, 0.0, 0.0, 0.0, -1.0, 0.8504025340080449, 0.14959751069546048, 0.7500001192092919, 15.069835662841829, State.safe
7.617263555526733, -0.0, 0.0, 0.0, 0.0, 0.0, 0.02897280640900141, 0.0, 0.0, 0.0, -1.0, 0.8504025340080449, 0.14959751069546048, 0.7500001192092919, 15.069835662841829, State.safe
7.730844020843506, -0.0, 0.0, 0.0, 0.0, 0.0, 0.02897280640900141, 0.0, 0.0, 0.0, -1.0, 0.8504025340080449, 0.14959751069546048, 0.7500001192092919, 15.069835662841829, State.safe
7.839368581771851, -0.0, 0.0, 0.0, 0.0, 0.0, 0.02897280640900141, 0.0, 0.0, 0.0, -1.0, 0.8504025340080449, 0.14959751069546048, 0.7500001192092919, 15.069835662841829, State.safe
7.9553306102752686, -0.0, 0.0, 0.0, 0.0, 0.0, 0.02897280640900141, 0.0, 0.0, 0.0, -1.0, 0.8504025340080449, 0.14959751069546048, 0.7500001192092919, 15.069835662841829, State.safe
8.063144445419312, -0.0, 0.0, 0.0, 0.0, 0.0, 0.02897280640900141, 0.0, 0.0, 0.0, -1.0, 0.8504025340080449, 0.14959751069546048, 0.7500001192092919, 15.069835662841829, State.safe
8.172219276428223, -0.0, 0.0, 0.0, 0.0, 0.0, 0.02897280640900141, 0.0, 0.0, 0.0, -1.0, 0.8504025340080449, 0.14959751069546048, 0.7500001192092919, 15.069835662841829, State.safe
8.296471357345581, -0.0, 0.0, 0.0, 0.0, 0.0, 0.02897280640900141, 0.0, 0.0, 0.0, -1.0, 0.8504025340080449, 0.14959751069546048, 0.7500001192092919, 15.069835662841829, State.safe
8.415364980697632, -0.0033604530542750686, 1.538673602685534, -0.260681147771881, 4.1961669694501325e-07, 0.0004718017589766532, 0.02916934527511356, -5.2528484520714344e-05, 0.016459696281364587, -0.1976853609085083, -1.0, 0.8503928780556088, 0.14959579706192258, 0.7500029802322483, 15.072086334228548, State.safe
8.537551164627075, -0.018018039443085686, 0.8532373261295997, -1.1034240642230757, 8.163451639120467e-06, 0.004521484486758709, 0.04201243445309751, -0.0008662401831860951, 0.049031294157093494, -0.46197977662086487, -1.0, 0.850110411643999, 0.14947973191794856, 0.7494771480561008, 11.326229095459025, State.safe
8.666240453720093, -0.018564451277220277, 0.34932434532844026, -2.411254958270914, 1.3275146557134576e-05, 0.01157409604638815, 0.13691791892119384, -0.002725572699891099, 0.06444345117062811, -0.7836189866065979, -1.0, 0.8495716452598862, 0.14865688979683936, 0.7401022315025447, 3.6826996803283767, State.safe
8.788166046142578, -0.01156351030165641, -0.06973266484934658, -3.770753408329645, 2.212524350397871e-06, 0.019616087898612022, 0.22380748391183253, -0.0047211729510759646, 0.06770193343566971, -1.0899999141693115, -1.0, 0.8497000336647428, 0.14815230667646317, 0.7340714931488038, 2.539947509765636, State.safe
8.907165050506592, -0.0016597363599242048, -0.19561770024894648, -5.32120172851762, -5.390167279983871e-05, 0.027576902881264687, 0.33727303147316895, -0.006662662094780389, 0.06387598353949166, -1.3454493284225464, -1.0, 0.850246608257311, 0.14767822623390311, 0.7283099293708809, 1.8993346691131594, State.safe
9.044160842895508, 0.004815282726522922, -0.2373046501633964, -7.108344029272129, -0.00017559051048010588, 0.03577331453561783, 0.4721844494344032, -0.008627813452846852, 0.05910642529772556, -1.2006916999816895, -1.0, 0.8512774109840525, 0.14726588130708537, 0.7232942581176791, 1.501636505126955, State.safe
9.17804479598999, 0.007752263528841775, -0.23284912958665563, -8.943033035623179, -0.00035720824962481856, 0.04339904710650444, 0.7113282084467718, -0.010251168555278868, 0.05471136207849205, -0.9589284658432007, -1.0, 0.8549481034279048, 0.14667089283477414, 0.7156536579132374, 1.0466014146804863, State.safe
9.303802490234375, 0.008455774457579173, -0.20712284381948212, -10.718522746655875, -0.000593910226598382, 0.050160519778728485, 0.8020251989364624, -0.011730321131946577, 0.05044878142203049, -0.7442317605018616, -1.0, 0.8576416969299634, 0.14648771286014972, 0.7130157351493941, 0.9066434502602082, State.safe
9.424797534942627, 0.008606038198053716, -0.24493409943834038, -12.37898589527969, -0.0008787154802121222, 0.0560009740293026, 0.8757429122924857, -0.01304581864120994, 0.04598980989380767, -0.5755641460418701, -1.0, 0.8609340786933957, 0.1463755667213015, 0.7111557126045329, 0.7991195917129766, State.safe
9.541469812393188, 0.00864018922189087, -0.1565552031443946, -14.088733353801407, -0.0012567138765007257, 0.061512451618909836, 0.935305833816539, -0.014133597911299863, 0.042040274287286857, -0.45169830322265625, -1.0, 0.864849507808699, 0.14632353186629599, 0.710099399089816, 0.7140597701072793, State.safe
9.66222095489502, 0.006591131372169375, -0.08602904209920265, -15.7595033630616, -0.00169029226526618, 0.06654723733663559, 0.9832731485368407, -0.015168549551050313, 0.03934094457942616, -0.34674271941185, -1.0, 0.8694063425066098, 0.14632660150551713, 0.7098374366760368, 0.6451461315155307, State.safe
9.779906749725342, 0.0041527542108832525, -0.03189087155517263, -17.475349919915043, -0.0021733473986387253, 0.0715179443359375, 1.0527385473252422, -0.016222276902732875, 0.037817128457544404, -0.26905861496925354, -1.0, 0.8746070861820634, 0.14654806256347488, 0.7102695107460069, 0.588281750679058, State.safe
9.896146297454834, 0.002076377114134406, 0.010663432923847612, -19.10666257418625, -0.0026446913834661245, 0.07616820931434631, 1.077507615089417, -0.017285618197984867, 0.037149006382141546, -0.208414688706398, -1.0, 0.8869647383690068, 0.1467906832699604, 0.7128963470459209, 0.5002133846283314, State.safe
10.018624544143677, -0.00021856573305541551, 0.09094594149736339, -20.86751813531357, -0.0031352234072983265, 0.08122070133686066, 1.0973240137100289, -0.018356205339196942, 0.03765097828233552, -0.16010792553424835, -1.0, 0.8941373825074004, 0.14714130759244318, 0.7149680256843586, 0.4655532836914102, State.safe
10.133828163146973, -0.0025476619221667073, 0.11563573879503629, -22.542855910220315, -0.003533668350428343, 0.08620483428239822, 1.1131573915482158, -0.019506203037657592, 0.03915740732455161, -0.12361647933721542, -1.0, 0.9021029472351384, 0.14762964844719012, 0.7174331545829927, 0.43562644720081206, State.safe
10.252510070800781, -0.004036642397465434, 0.13588370485878104, -24.261421086085548, -0.0038425445090979338, 0.09157226234674454, 1.1257936954500911, -0.02077352419665789, 0.04101515118859255, -0.09533772617578506, -1.0, 0.9122421741487687, 0.1482808738955008, 0.7202346920967297, 0.4096281230449705, State.safe
10.37717604637146, -0.0050816629105362365, 0.154701078284577, -25.9801458223154, -0.004025687929242849, 0.09724181890487671, 1.135869860649597, -0.022201424125625036, 0.04342399617211579, -0.07196668535470963, -1.0, 0.9231223464012299, 0.14911374449730627, 0.7233505845069966, 0.38691681623489255, State.safe
10.497854232788086, -0.005942261191875687, 0.1723202549635011, -27.74193261521503, -0.0040544127114117146, 0.1034075915813446, 1.1502832174301394, -0.02362271121777376, 0.04607707588809141, -0.05489705502986908, -1.0, 0.9471959471703023, 0.15141081810021476, 0.7304586172103917, 0.3414293527603301, State.safe
10.620524883270264, -0.00669357974629618, 0.1889463764665, -29.503758018692785, -0.0038916778285056353, 0.10997070372104645, 1.1553512811661018, -0.025216845533019127, 0.04909773877701969, -0.04149804636836052, -1.0, 0.9604427814486449, 0.1529259532690667, 0.7344253063202109, 0.32240408658988085, State.safe
10.743199586868286, -0.008312340040076681, 0.3119626936835873, -31.265640154343387, -0.003486442379653454, 0.11699645966291428, 1.159373998642121, -0.02693904009377234, 0.05350952698383013, -0.031240390613675117, -1.0, 0.9745317697525578, 0.15472778677951501, 0.7386482954025569, 0.30581426620484325, State.safe
10.859886407852173, -0.01067557511125324, 0.28299524354147176, -32.941548919620566, -0.002759055932983756, 0.12428100407123566, 1.1625480651855606, -0.02877510462098025, 0.05872683260874471, -0.023773297667503357, -1.0, 0.9894331097603523, 0.15690450370359835, 0.743005514144936, 0.2914236783981739, State.safe
10.981560945510864, -0.010948792378222669, 0.2652227994389143, -34.660378596012904, -0.0016582870157435536, 0.13234740495681763, 1.165044784545908, -0.030878566416266597, 0.06337860118488504, -0.01795850694179535, -1.0, 1.0051536560058667, 0.15951840579510682, 0.7474390268326424, 0.27899315953255577, State.safe
11.101239204406738, -0.010696079898886886, 0.26028109118796755, -36.379263261060345, -0.00020805357780773193, 0.14096739888191223, 1.1670135259629153, -0.03302100793116367, 0.06780993996178769, -0.013519114814698696, -1.0, 1.0217734575274804, 0.16257977485750227, 0.7520086765289384, 0.2682347893716911, State.safe
11.224909543991089, -0.01052532369245688, 0.26234317784995653, -38.18409248346767, 0.0017012023599818349, 0.1505914330482483, 1.1697772741319181, -0.03545083989929432, 0.07221311452741087, -0.010051163844764233, -1.0, 1.0580005645753054, 0.170155718922762, 0.7616931200027591, 0.2509173154831105, State.safe
11.340599298477173, -0.011495219482640992, 0.39411180847013894, -39.81713012779522, 0.0038105391431599855, 0.15982481837272644, 1.1707359552385248, -0.037796246954315035, 0.07764206020192709, -0.007449418306350708, -1.0, 1.0777401924133336, 0.17476442456248364, 0.7668453454973737, 0.24407708644898177, State.safe
11.45928406715393, -0.01382431705030219, 0.34922164018368446, -41.53612150794141, 0.006577109917998314, 0.1702423095703125, 1.1714620590210147, -0.04049179241075457, 0.0842333166038081, -0.005409064702689648, -1.0, 1.0985425710678283, 0.18009540438652186, 0.7720681428909342, 0.23843543231504316, State.safe
11.574973821640015, -0.01372184789551622, 0.32197094573871965, -43.16909847922613, 0.009716796688735485, 0.18076537549495697, 1.1720110177997851, -0.04323998819283538, 0.08954021425636365, -0.004032819531857967, -1.0, 1.120459079742435, 0.18624170124566386, 0.7773362398148176, 0.2339213937523867, State.safe
11.688888549804688, -0.013120800268635081, 0.31147062712423074, -44.80209019103052, 0.01332599576562643, 0.1918347179889679, 1.1724344491958714, -0.04619476784501344, 0.09439080609505887, -0.002979534910991788, -1.0, 1.1436412334442272, 0.19322562217749187, 0.7827394008636878, 0.2303839474917479, State.safe
11.81019139289856, -0.012690484729853022, 0.31065486799886366, -46.56410413435908, 0.017745742574334145, 0.20435363054275513, 1.1727590560913514, -0.04937031904413022, 0.09933395396739675, -0.002122679026797414, -1.0, 1.168228268623462, 0.20110332965894118, 0.788332462310961, 0.22772136330606535, State.safe
11.93746042251587, -0.012567549423392433, 0.3163648403390696, -48.36909026881042, 0.022855110466480255, 0.2177758812904358, 1.1731859445573112, -0.05285681105493768, 0.10444490320056757, -0.0014354634331539273, -1.0, 1.2221754789352424, 0.21987861394890404, 0.8002393841743985, 0.22476473450662895, State.safe
12.060247898101807, -0.014111153523405473, 0.49039610533697653, -50.13102018756886, 0.028481025248765945, 0.2314898669719696, 1.1733328104019225, -0.0564388140017594, 0.11108493441371113, -0.0007679052068851888, -1.0, 1.25181913375855, 0.2310111075642373, 0.8066090941429639, 0.22440548241150093, State.safe
12.182583570480347, -0.017102785441899245, 0.43115371862815344, -51.84999236337323, 0.034817542880773544, 0.245624378323555, 1.1734045743943264, -0.060323986317767475, 0.11912063897621039, -0.0002766255638562143, -1.0, 1.2832471132278724, 0.24368472397382404, 0.8130834698677448, 0.22492718696638667, State.safe
12.29716444015503, -0.01693203905514, 0.3960402138147751, -53.525952947743626, 0.04178153723478317, 0.26007506251335144, 1.173427462577844, -0.06414991477617094, 0.1253183478237928, -0.00012622699432540685, -1.0, 1.3165849447251037, 0.2581262886524279, 0.8196332454686435, 0.22634449601237067, State.safe
12.412411451339722, -0.0161465654402327, 0.3833166086421792, -55.201887836169846, 0.0494668185710907, 0.2751098573207855, 1.1734395027160704, -0.06823850774613836, 0.1311126126076934, -1.672615690040402e-05, -1.0, 1.3521671295166229, 0.27443939447403426, 0.8263854384422464, 0.2285361588002075, State.safe
12.527156829833984, -0.015647970364111655, 0.383695572253806, -56.83487756741038, 0.05764034017920494, 0.2902807593345642, 1.1734430789947785, -0.0723680555360613, 0.13652233476378273, 8.512700151186436e-05, -1.0, 1.3903212547302564, 0.29279607534412705, 0.8334253430367301, 0.2314377725130303, State.safe
12.647094488143921, -0.015531847294925717, 0.3925668067321795, -58.55385898855081, 0.06699073314666748, 0.30678343772888184, 1.173426151275659, -0.076874133632163, 0.14218128223616983, 0.00018991989782080054, -1.0, 1.475774526596089, 0.3366381525994937, 0.8486391901971436, 0.23925420641922823, State.safe
12.769222736358643, -0.01746480044534057, 0.6145185516976294, -60.2728639559436, 0.07719916850328445, 0.3238549828529358, 1.1734308004382619, -0.08158811483485331, 0.1502086915902772, 0.0005648320657201111, -1.0, 1.523859024047853, 0.36281710863124966, 0.856937110424099, 0.24418541789056777, State.safe
12.884444236755371, -0.021364844868694225, 0.5492277952072054, -61.948974740350614, 0.08830451965332031, 0.3412066698074341, 1.1733670234682492, -0.08650777074876076, 0.15925595237384071, 0.000832025776617229, -1.0, 1.5757421255111728, 0.39276635646825164, 0.8654929399490737, 0.2500318884850874, State.safe
12.999227523803711, -0.021494619652962253, 0.5119289566179874, -63.53902392551597, 0.09987487643957138, 0.3582727015018463, 1.173273444175926, -0.09171245605759207, 0.16686310021269363, 0.000711830158252269, -1.0, 1.6319061517715463, 0.4271314144135579, 0.8743153810502966, 0.25683942437176266, State.safe
13.116689682006836, -0.020784264446485984, 0.5022760994055925, -65.21503914825058, 0.11309066414833069, 0.3768249452114105, 1.1731965541842022, -0.09700826140176882, 0.17419942035934294, 0.0006086909561417997, -1.0, 1.6932606697082786, 0.42662271857263573, 0.8826348781586479, 0.2645040154468282, State.safe
13.231319665908813, -0.02023787293328703, 0.4866553689106383, -66.84802198095768, 0.12696212530136108, 0.39541319012641907, 1.1731314659119259, -0.10233822781396801, 0.18122167881764564, 0.0005411150050349534, -1.0, 1.7608178853988707, 0.4036412835122174, 0.8581680655480113, 0.2729813754559776, State.safe
13.347376585006714, -0.013421322655806606, -0.3568725455604063, -68.52400754514576, 0.14198295772075653, 0.41487792134284973, 1.1730680465698364, -0.10798845860546241, 0.17962378660868425, -0.0007662201533094049, -1.0, 1.835799813270569, 0.3810138404369426, 0.8340607285503844, 0.2822506129745233, State.safe
13.466270685195923, 0.007998130512207166, -0.8278809186530303, -70.24285533965389, 0.15669097006320953, 0.4346044957637787, 1.1733158826829109, -0.11317951235123735, 0.16330353616859367, -0.0026700568851083517, -1.0, 2.020473241806034, 0.33755490183846354, 0.7888104319574927, 0.30112415552141, State.safe
13.578478574752808, 0.28308397642130345, -1.5203245544501212, -71.50357269474922, 0.1682596355676651, 0.45169615745544434, 1.1738772392273735, -0.11441730070176458, 0.13829378809679058, -0.0037578153423964977, -1.0, 2.11989164352418, 0.31778681278239357, 0.7706075310707579, 0.3092775940898611, State.safe
13.697514772415161, 0.5239574946295193, -1.253936720726704, -72.25689515229428, 0.1781899780035019, 0.4690344035625458, 1.1742725372314529, -0.10711046462882093, 0.10722505662843047, -0.0037269850727170706, -1.0, 2.176771163940435, 0.3005273640156329, 0.75787264108674, 0.3162679672241655, State.safe
13.810449361801147, 0.5990622404023308, -0.9268188765247586, -72.59172734016522, 0.18504701554775238, 0.4831579625606537, 1.1745283603668333, -0.09648683774955688, 0.08578105489561767, -0.0022997604683041573, -1.0, 2.202651023864746, 0.28559857606893424, 0.7492062449455539, 0.3218460083008613, State.safe
13.933718919754028, 0.6258229652391705, -0.6320497605298911, -72.72872659033365, 0.19115543365478516, 0.49733397364616394, 1.1746907234193649, -0.08372198606586265, 0.06954054091524482, -0.0009365903679281473, -1.0, 2.2076816558838024, 0.272673070430815, 0.7432115674020632, 0.3263974487782496, State.safe
14.052396297454834, 0.6325710837179156, -0.4393004976859212, -72.71752989592864, 0.19562584161758423, 0.5082507133483887, 1.1747661828997065, -0.07110598785699386, 0.058978710495854, -9.294115443481132e-05, -1.0, 2.1993904113769536, 0.2614926397801622, 0.7389114499092831, 0.33025366067910117, State.safe
14.167476177215576, 0.6346133996690523, -0.30770879205566437, -72.63582253830218, 0.19944071769714355, 0.517228364944458, 1.1747388839721695, -0.058340209902597244, 0.05171415278781494, 0.0003995014703832567, -1.0, 2.1828713417053223, 0.24367929995067528, 0.7329599261284088, 0.33692309260372566, State.safe
14.282351970672607, 0.6353715190621818, -0.21472170107043112, -72.50591841712443, 0.20319658517837524, 0.5250005722045898, 1.1746777296066768, -0.0458401000358426, 0.04681455694412279, 0.0006626583053730428, -1.0, 2.136737346649173, 0.23682457208636512, 0.7305522561076375, 0.34012177586611464, State.safe
14.401273250579834, 0.6356516011106695, -0.22103884861261588, -72.35394760135307, 0.20679517090320587, 0.530977189540863, 1.1746053695679013, -0.03266899015421845, 0.04250377864542429, 0.0007818912272341549, -1.0, 2.110265731811533, 0.2312494814396369, 0.7282161116600765, 0.34340065717700446, State.safe
14.51563048362732, 0.6357745310897219, -0.1574401486806244, -72.19200889709327, 0.21028219163417816, 0.5352917313575745, 1.1745216846466549, -0.020150200353898765, 0.03884809490901243, 0.0008361631189472973, -1.0, 2.0828437805175835, 0.2269398272039937, 0.7091152071953154, 0.3467765152454983, State.safe
14.631539821624756, 0.6355900727812285, -0.5492859244739601, -72.02208833172742, 0.21374045312404633, 0.5381115674972534, 1.1744557619094924, -0.0076362587006584565, 0.03221628974529977, 0.0007755995029583573, -1.0, 2.0549256801605265, 0.223872035742014, 0.6933887004852726, 0.3502905964851503, State.safe
14.744776248931885, 0.6347022006669657, -0.6819765791296443, -71.85201709608302, 0.21649616956710815, 0.5392303466796875, 1.174421429634114, 0.00483594814127888, 0.019861660090085154, 0.0007356328424066305, -1.0, 2.0277915000915563, 0.22214384377003554, 0.6818777322771452, 0.3536602258682644, State.safe
14.858481168746948, 0.6340874252761365, -0.6345214989045983, -71.67937585889767, 0.21833838522434235, 0.5386407375335693, 1.1743592023849607, 0.017255653498839205, 0.006850019232910989, 0.000850299431476742, -1.0, 2.0030815601348935, 0.22190532088285508, 0.6748743057252442, 0.3564059734346848, State.safe
14.972285270690918, 0.6340600266829414, -0.4813231748424613, -71.49085242277283, 0.21939727663993835, 0.5361102223396301, 1.1742591857910716, 0.029629169519261055, -0.004078656897587361, 0.0009691287996247411, -1.0, 1.9811893701553382, 0.22319434583191966, 0.6724497079851766, 0.35842311382368564, State.safe
15.091485261917114, 0.3485991714513523, -0.2832642081605424, -71.64622179450116, 0.2198047637939453, 0.5320422053337097, 1.1739617586136122, 0.040024834073495594, -0.01150863611356841, 0.0009062617318704724, -1.0, 1.9791065454483094, 0.2296432256698629, 0.6922557950021441, 0.36002999544161557, State.safe
15.209731101989746, 0.12881050495993251, -0.06314086761113702, -72.45673913059645, 0.21987366676330566, 0.5267089605331421, 1.1738506555557373, 0.04457359362663018, -0.014252202324304544, 0.0005819477373734117, -1.0, 2.0522744655609735, 0.2335019856692367, 0.7135118246086396, 0.3587714731693522, State.safe
15.331286668777466, 0.35546351565334433, 1.0507335698514808, -73.30094801857598, 0.22022901475429535, 0.520861804485321, 1.1739077568054759, 0.04908765078308272, -0.0032487928719828335, 0.00039793705218471587, -1.0, 2.1476430892944336, 0.23754218220717785, 0.7093977332115362, 0.35733392834664585, State.safe
15.448282241821289, 0.5298450688842575, 0.45610535478794845, -73.69064187885041, 0.2225777953863144, 0.5152557492256165, 1.1738877296449102, 0.05814820630866917, 0.013476235235321975, 0.0006789971375837922, -1.0, 2.2022576332092627, 0.24210333824159055, 0.705566883087159, 0.3580383658411506, State.safe
15.56348443031311, 0.5952100125736803, 0.11316235775183034, -73.82836691096492, 0.22660966217517853, 0.5085241794586182, 1.173753261566218, 0.06945212655251068, 0.01895275836143657, 0.0007636779337190092, -1.0, 2.22173070907596, 0.24734008312228217, 0.7010706663132841, 0.3609413802624244, State.safe
15.681695461273193, 0.6208778516880612, -0.058471617420345116, -73.83488027569224, 0.23111629486083984, 0.5009222030639648, 1.17367112636576, 0.08167396640818039, 0.019271970571282267, 0.0007548831054009497, -1.0, 2.218629598617559, 0.25357675552370973, 0.6963559389114723, 0.3651200532913422, State.safe
15.794263362884521, 0.6305493478736561, -0.14419546113621867, -73.76412954079379, 0.23590348660945892, 0.4919683635234833, 1.1735986471176754, 0.09360208895578953, 0.017122266731951052, 0.0007449109689332545, -1.0, 2.2016665935516446, 0.2609653174878001, 0.6915473937993715, 0.37001630663920154, State.safe
15.909399271011353, 0.634032753754402, -0.18667586273445183, -73.64793551375082, 0.24078528583049774, 0.48158201575279236, 1.1734528541565064, 0.10628964943236412, 0.013533613943679142, 0.000751366897020489, -1.0, 2.146817922592166, 0.2794407904149038, 0.6818699240684888, 0.3808746337891913, State.safe
16.026431798934937, 0.6352553379781114, -0.20816037970302334, -73.49672872198953, 0.24592633545398712, 0.4690667688846588, 1.173377513885504, 0.11899346441502025, 0.009262487057808591, 0.0007694217492826283, -1.0, 2.1147084236145055, 0.29057133197793017, 0.677035510540573, 0.3865732848645705, State.safe
16.1401526927948, 0.635494324613477, -0.3382263230159791, -73.34158137139788, 0.25061067938804626, 0.4560192823410034, 1.1733080148697277, 0.1313666499772208, 0.00358479137829798, 0.0007903919904492795, -1.0, 2.0815899372101003, 0.3029796183109667, 0.6722131967546511, 0.39236053824536177, State.safe
16.259339094161987, 0.6353715794749379, -0.28894039817069433, -73.1642085526507, 0.2553898096084595, 0.44026121497154236, 1.1732270717620925, 0.14403587095031953, -0.0032759465675413005, 0.000823599228169769, -1.0, 2.0486934185028134, 0.31670704483988077, 0.66752827167513, 0.39807540178317175, State.safe
16.378289461135864, 0.635398782774141, -0.2500610512006558, -72.98105875783892, 0.2599281370639801, 0.42280271649360657, 1.1731384992599563, 0.15699799040450832, -0.009240392769195908, 0.0008484978461638093, -1.0, 2.016553640365657, 0.3317636847496891, 0.6630023121834079, 0.40367743372935827, State.safe
16.494366884231567, 0.6355218380465999, -0.22985828230741878, -72.80408272896628, 0.26411059498786926, 0.40466856956481934, 1.1730499267579337, 0.16960671901521657, -0.014553024418058447, 0.0008609536453150213, -1.0, 1.9851472377777253, 0.3481271862984592, 0.6585425138473525, 0.40924596786513945, State.safe
16.614272594451904, 0.3321521023182557, -0.2155457216282633, -72.98255601525373, 0.26851731538772583, 0.38349729776382446, 1.1729600429535154, 0.18012845391944524, -0.018532136633932793, 0.000464106909930706, -1.0, 1.954887390136722, 0.3657737970352249, 0.6540747880935709, 0.4148182570934378, State.normal
16.73132014274597, 0.1291451975677718, -0.20904539839947892, -73.76582759888967, 0.27236688137054443, 0.36293089389801025, 1.1728112697602107, 0.18457587548079651, -0.02010544359905431, -0.0004423217033036053, -1.0, 2.0400803089141957, 0.40159097313886344, 0.6400898694992135, 0.4224115312102502, State.normal
16.84730815887451, 0.34616077024527253, -0.45446757302061175, -74.61119744763535, 0.2759716808795929, 0.34074339270591736, 1.1729022264480713, 0.18858708382986522, -0.023851957295153832, -0.0004673919756896794, -1.0, 2.131410598754937, 0.41952902078629495, 0.6323509216309946, 0.4250045418739907, State.normal
16.96351718902588, 0.5283218985615933, -0.42565916602622383, -75.00562278097232, 0.27868014574050903, 0.3187182545661926, 1.1729627847673039, 0.19764293027277638, -0.03157382763522231, 0.00045679675531573594, -1.0, 2.1839590072631894, 0.43876379728323417, 0.6265729665759097, 0.42798987031020735, State.normal
17.085204601287842, 0.5985977505505126, -0.3464049472622674, -75.16743467594695, 0.28086981177330017, 0.2940838634967804, 1.1729199886323052, 0.20961241763018676, -0.039088381129621055, 0.0010330091463401914, -1.0, 2.2076592445373597, 0.4594573974609534, 0.6221855878831477, 0.43104970455180563, State.normal
17.199567079544067, 0.6226740762796016, -0.273223673397508, -75.17966948843862, 0.28256312012672424, 0.2685064673423767, 1.1728191375732968, 0.22144771507960576, -0.04503950342495093, 0.0011964458972215652, -1.0, 2.212278366088871, 0.48160567879676885, 0.6186747550967451, 0.4341205060482817, State.normal
17.31121587753296, 0.6310684355299389, -0.21594237465385963, -75.1111808992978, 0.2839658558368683, 0.24208922684192657, 1.1726964712146655, 0.23316794516284378, -0.04993599706154839, 0.0011861317325383425, -1.0, 2.204814672470097, 0.5051640272140724, 0.6156931519508372, 0.4372084140783963, State.normal
17.43058681488037, 0.6341489266143255, -0.17501828848553155, -74.99633114700498, 0.2852556109428406, 0.21420836448669434, 1.1725716590883832, 0.24588982408984714, -0.05440147535538698, 0.0011114816879853606, -1.0, 2.1899120807647754, 0.5300819873811059, 0.6129989624023571, 0.4403494596486301, State.normal
17.54622745513916, 0.6353441160382804, -0.14801032607892356, -74.85014268534115, 0.2865588963031769, 0.18409179151058197, 1.172341585159314, 0.25795344445820395, -0.058166877460661806, 0.0010352568933740258, -1.0, 2.148459911346444, 0.5838303565979494, 0.607861816883215, 0.4469493329525774, State.normal
17.658289670944214, 0.6357403007315554, -0.19668577247383315, -74.69155988631297, 0.28785496950149536, 0.1532934606075287, 1.172240018844847, 0.26999014811612454, -0.0622002584395199, 0.0010046687675639987, -1.0, 2.12487101554872, 0.6126127243042114, 0.6052387952804845, 0.4504617750649699, State.normal
17.781539916992188, 0.6358358620497483, -0.16082764670044905, -74.51454779251914, 0.28918883204460144, 0.1193084716796875, 1.1721358299256888, 0.28261450216738926, -0.06681251455854449, 0.00097938091494143, -1.0, 2.100705862045288, 0.6426635384559714, 0.6025846004486123, 0.4540678262710998, State.normal
17.898619651794434, 0.6359179066805117, -0.14028930100662382, -74.33165497723226, 0.29054364562034607, 0.08373291045427322, 1.172035455703796, 0.29520967130786463, -0.07077271471452654, 0.0009198002517223358, -1.0, 2.076392412185685, 0.6739783883094997, 0.599873006343893, 0.4577727317811839, State.normal
18.018645524978638, 0.6359793670340795, -0.13336189787275202, -74.14992312849549, 0.2919395864009857, 0.0475323460996151, 1.1719403266906798, 0.30776805283599995, -0.07452516821368807, 0.0008799841161817312, -1.0, 2.0520322322845614, 0.7065421342849747, 0.5970476865770512, 0.4616220593454542, State.normal
18.135262489318848, 0.3396037845970208, -0.1333008177177547, -73.96229922982765, 0.29345273971557617, 0.00892028771340847, 1.1718462705612864, 0.3176146327130102, -0.07821762024977266, 0.00020347509416751564, -1.0, 2.027702569961548, 0.7403445243835671, 0.5940808653831925, 0.46563571691521055, State.normal
18.259307622909546, 0.11958977825773724, -0.13684080468848078, -73.76869325233419, 0.2949202358722687, -0.031608276069164276, 1.171783566474916, 0.3214816564535916, -0.08214591123244828, -0.0014024685369804502, -1.0, 1.9801497459411779, 0.8108915090560956, 0.58794230222703, 0.47392097115518605, State.normal
18.376311779022217, 0.04260671929018649, -0.2227476938877806, -73.57876586519369, 0.29603323340415955, -0.0695367380976677, 1.1719573736190856, 0.32240926157657357, -0.08677208004921341, -0.0020034119952470064, -1.0, 1.9578250646591187, 0.8468991518020961, 0.5850664377212708, 0.4778946638108223, State.normal
18.491859674453735, 0.016720297554736092, -0.1813354521087026, -73.74954587922895, 0.2967589199542999, -0.10967773199081421, 1.172160983085693, 0.32292538209671123, -0.08983821337188562, -0.0019821771420538425, -1.0, 1.9546039104461699, 0.8824828863143924, 0.581956446170813, 0.4810973405839298, State.normal
18.60969614982605, 0.008360151204347237, -0.16235348353822188, -74.51897942176251, 0.2970421612262726, -0.14793822169303894, 1.1723594665527586, 0.32405467888862427, -0.0889882754882846, -0.0017713225679472089, -1.0, 2.0174291133880686, 0.9157614707946816, 0.5772728323942248, 0.4813612699508844, State.normal
18.72434139251709, 0.00521826469173082, -0.1938476288519225, -75.32779295218425, 0.2969610393047333, -0.18628539144992828, 1.172541618347168, 0.3251693418099967, -0.08768880867038331, -0.001466579968109727, -1.0, 2.129277467727665, 0.9476240873336867, 0.5718994736671502, 0.47931694984496437, State.normal
18.84214758872986, 0.003087258430300976, -0.23257440976280075, -75.75521997938615, 0.2964383363723755, -0.22573180496692657, 1.1726988554001885, 0.3255527375710652, -0.08971973148346708, -0.001127984607592225, -1.0, 2.2148001194000577, 0.9806464314461055, 0.567858278751442, 0.47761002182965323, State.normal
18.957087755203247, 0.001707544844969266, -0.2161560034615656, -75.9044048982589, 0.295399010181427, -0.265280157327652, 1.172825813293495, 0.3255355023663818, -0.09326843238366343, -0.0008736381423659623, -1.0, 2.264019012451177, 1.0148824453354028, 0.5651363730431438, 0.47613528370858565, State.normal
19.075006008148193, 0.000676190948563512, -0.17126461563121942, -75.91981811508148, 0.2939113974571228, -0.3039019703865051, 1.1730002164841304, 0.32526870044113787, -0.09708626562970214, -0.0007258487748913467, 0.8270090818405286, 2.297661542892459, 1.0854842662811552, 0.5623541474343206, 0.4729027450086332, State.normal
19.198708057403564, 6.146649799568015e-05, -0.14950560262081583, -75.8444826402455, 0.2917628586292267, -0.3476806581020355, 1.1730692386627273, 0.3248100003371624, -0.10093330980224885, -0.0006191862048581243, 0.8269376754765709, 2.297060489654556, 1.1214278936386117, 0.5618570446968119, 0.4710129797459866, State.normal
19.32503366470337, -0.0002185660674318006, -0.07745360027481604, -75.71321562116132, 0.28927740454673767, -0.3904955983161926, 1.1731286048890266, 0.3242381131348917, -0.10408057156253095, -0.0005684648058377206, 0.8268743753433249, 2.290867805480985, 1.1576409339904854, 0.5617696046829509, 0.4689274132252102, State.normal
19.44498872756958, -0.00022539659118737116, -0.03283691073851275, -75.55940609112827, 0.2867695987224579, -0.4302636682987213, 1.1731860637670246, 0.3236340157905531, -0.10600045603855225, -0.0005565955070778728, 0.8268150091171484, 2.281432867050175, 1.194043755531312, 0.5633140206341899, 0.4666952192788869, State.normal
19.5608868598938, -0.00011611227409704465, 0.029837210479684288, -75.3941203037376, 0.28412002325057983, -0.4710320830345154, 1.173242449760493, 0.3230150315132606, -0.10691055598944081, -0.0005523383151739836, 0.8267580270767411, 2.270075798034668, 1.2305765151977612, 0.5662316083910038, 0.4643858969213347, State.normal
19.68573808670044, 9.562443376352216e-05, 0.09865904912329262, -75.2155321218937, 0.2815375030040741, -0.5117431282997131, 1.1733577251434568, 0.3223423909172758, -0.10651851534749612, -0.0005721525521948934, 0.8266447186472374, 2.244040250778202, 1.3038662672043069, 0.5721557736401369, 0.4598198235036537, State.normal
19.797916650772095, 0.00039615248760096203, 0.20636715166910452, -75.03636832193804, 0.2792493402957916, -0.5513390898704529, 1.173421978950658, 0.3217355833170807, -0.10446201231115146, -0.0006212358130142093, 0.8265888690950899, 2.2295985221862846, 1.3405461311340336, 0.5749419331550814, 0.4577599763881142, State.normal
19.921738624572754, 0.0007035068052678933, 0.18201804318573112, -74.84479476436833, 0.27729710936546326, -0.5928051471710205, 1.17348623275757, 0.3210838743521612, -0.1012976627193098, -0.0005834507755935192, 0.8265249133111121, 2.2138867378234908, 1.377189874649053, 0.5774215459824433, 0.4560223519821408, State.normal
20.039886951446533, 0.0007308256093845067, 0.15757587981429694, -74.66558220209917, 0.27589380741119385, -0.6310924887657166, 1.173542737960817, 0.3204822610103833, -0.09890815731723816, -0.00043371604988351464, 0.8264652490615979, 2.1970095634460485, 1.4137892723083547, 0.5795713067054857, 0.4546294510369946, State.normal
20.153855562210083, 0.0007035039266412798, 0.13737778694837552, -74.48076674969543, 0.27479788661003113, -0.6702587604522705, 1.1735868453979492, 0.3198858889631115, -0.0970794228826684, -0.00030415033688768744, 0.8264195919038112, 2.179267406463624, 1.4195957183837933, 0.5814362168318848, 0.4535346627241484, State.normal
20.270532608032227, 0.0006420301624765481, 0.12051507368724476, -74.30006512330732, 0.2740209102630615, -0.7083062529563904, 1.1736190319061839, 0.31927870026352034, -0.09557225035500191, -0.00020252313697710633, 0.8263863325120206, 2.160868167877198, 1.412430047988937, 0.583052456379191, 0.45270234346390165, State.normal
20.392101526260376, 0.0005532408041997848, 0.10530112231738721, -74.10472237190311, 0.27346235513687134, -0.7492419481277466, 1.1736572980880995, 0.31867555602481873, -0.09430145327462235, -0.00012730955495499074, 0.8263460993775453, 2.1419792175293004, 1.4060060977936417, 0.5844483375549393, 0.45210182667029203, State.normal
20.50591516494751, 0.0004917689565487376, 0.09310177634558146, -73.92358360685964, 0.2731712758541107, -0.787083089351654, 1.1736673116685308, 0.31809814692334015, -0.09337733449629602, -7.678711699554697e-05, 0.8263349533081598, 2.103227615356446, 1.3950591087341486, 0.5866757035255492, 0.45149523019790744, State.normal
20.618611812591553, 0.0004576169715617834, 0.1077527103703993, -73.74232991865097, 0.27307745814323425, -0.8248339891433716, 1.17367434501654, 0.3175233314504418, -0.09244630847546655, -5.8533409173833206e-05, 0.8263285160065471, 2.0835371017456197, 1.3904106616974168, 0.5875456333162246, 0.4514519572260209, State.normal
20.738764762878418, 0.0004576250478200459, 0.08134607519305555, -73.5514494555767, 0.27320390939712524, -0.8644707798957825, 1.173680067062499, 0.31692224336602076, -0.09153655390591944, -3.7315607187338173e-05, 0.8263221383094809, 2.0636384487152113, 1.3863136768341124, 0.5882456898689344, 0.45158722996712436, State.normal
20.859174489974976, 0.00036882837034344246, 0.06188118077100479, -73.35577049046151, 0.27350661158561707, -0.9030279517173767, 1.1736829280856782, 0.3163159145364991, -0.09116388743614741, 4.540612280834466e-06, 0.8263183832172019, 2.0435976982116753, 1.3827003240585356, 0.5887966752052387, 0.45188164710999434, State.normal
20.980127096176147, 0.0003073560387104656, 0.04961598903117119, -73.16955640501932, 0.273966908454895, -0.9434820413589478, 1.1736824512481765, 0.31572501032027783, -0.09105382824480794, 3.053355612792075e-05, 0.8263186216354956, 2.023555755615249, 1.379464387893687, 0.5892346501350908, 0.45229953527502814, State.normal
21.09621024131775, 0.00024588519253473603, 0.041058697019441696, -72.98339141763529, 0.27451032400131226, -0.9818944931030273, 1.1736794710168563, 0.31514124710856417, -0.09117665269565708, 4.208803511573933e-05, 0.8263207674028665, 2.0035898685455376, 1.3765342235565279, 0.5895832180979032, 0.45281648635947536, State.normal
21.211261987686157, 0.0002185653524287957, 0.034804042291971496, -72.80198106588355, 0.27511975169181824, -1.0192638635635376, 1.1736712455749814, 0.3145720153157711, -0.0914371004972939, 4.593189441948198e-05, 0.8263286948205142, 1.964104771614077, 1.3713924884796196, 0.5900760889053918, 0.45408371090891464, State.normal
21.326995611190796, -6.830914937604976e-06, 0.029837307098519623, -72.94919651618487, 0.27581265568733215, -1.0575610399246216, 1.1736673116691527, 0.31451554784673175, -0.08998505164187648, 4.587182047544047e-05, 0.8263326883316061, 1.972847700119022, 1.3846442699432382, 0.5894733667374183, 0.45421800017413305, State.normal
21.44106125831604, -0.00026637723119335216, 0.010554697544610173, -73.73185931811133, 0.276558518409729, -1.0958062410354614, 1.1736630201343732, 0.31542403397591223, -0.08527580895703239, 5.431487807072699e-05, 0.8263366818428131, 2.043178796768191, 1.4319124221801813, 0.5872884392746649, 0.45321092009546465, State.normal
21.55516743659973, -7.51301799782606e-05, -0.04547119189538975, -74.48989881655467, 0.27726978063583374, -1.132055640220642, 1.1736569404602173, 0.31623443374053456, -0.0814289287783866, 9.737848449731246e-05, 0.8263430595397976, 2.144672870636001, 1.4959584474563725, 0.5846309661865244, 0.4518674910068606, State.normal
21.67434287071228, 0.0002732084794012807, -0.08843993702968254, -74.88708997248892, 0.27791380882263184, -1.1702587604522705, 1.173647284507753, 0.3164949767709021, -0.08065979096427277, 0.00015527680807281286, 0.8263539671898367, 2.209534406661991, 1.5398423671722483, 0.5830085873607613, 0.45122894644807315, State.normal
21.79333996772766, 0.0003073582464308746, -0.08233641897706004, -75.039778095967, 0.27836254239082336, -1.2084789276123047, 1.1736327409745049, 0.31642191758048166, -0.08156786239743016, 0.0001608272868907079, 0.8263696432114707, 2.242792844772339, 1.5662672519684588, 0.582181394100818, 0.4509736299515516, State.normal
21.910306453704834, 0.0001229455005308079, -0.05630491429502926, -75.04939275499525, 0.27862420678138733, -1.2476965188980103, 1.173616051673927, 0.3161449076506359, -0.08290628890632247, 0.00011366661783540621, 0.8263856172562425, 2.2549755573272705, 1.580725789070136, 0.5819119215011649, 0.4508631527431612, State.normal
22.02731990814209, -6.831015089991949e-06, -0.027587890845089228, -74.9733081050493, 0.27874255180358887, -1.286914587020874, 1.173593282699809, 0.31574069863016563, -0.0841572623081002, 5.090014747111127e-05, 0.8264068365102597, 2.2537364959716926, 1.5889401435852109, 0.5820256471635059, 0.45074969530108056, State.normal
22.146867990493774, -4.0981069295992324e-05, -0.0038757323548902203, -74.8516580671888, 0.27878397703170776, -1.3251360654830933, 1.173590302467499, 0.31525953649548644, -0.0851384337475581, -3.953978193749208e-06, 0.8264095783235211, 2.2296438217163086, 1.5874726772308465, 0.5829107761384282, 0.45071738958381175, State.normal
22.26545786857605, -5.599294954236188e-10, 0.0274168247062602, -74.70298575628381, 0.2788101136684418, -1.363325834274292, 1.1735918521881163, 0.31473738161283826, -0.08569776738234722, -5.0562459364300594e-05, 0.8264080286026044, 2.2121114730834974, 1.5841815471649257, 0.5835117697716243, 0.45071354508414313, State.normal
22.380274772644043, 6.147205120847212e-05, 0.03597013761527462, -74.53858628240921, 0.2788821756839752, -1.4014679193496704, 1.1735974550249615, 0.31420794270808344, -0.08595322190575679, -7.550825830549002e-05, 0.8264027833942424, 2.1927924156189014, 1.5799067020416266, 0.5841286182404343, 0.45076560974129903, State.normal
22.497119426727295, 0.0001229445396971657, 0.039286621601443326, -74.36953330259892, 0.2790209650993347, -1.4385790824890137, 1.1736054420476156, 0.31366568693078817, -0.08612180175778464, -7.419785833917558e-05, 0.8263946175575794, 2.172425508499146, 1.57516372203831, 0.5847213864327115, 0.45089131593736137, State.normal
22.617921113967896, 0.0001570944862546213, 0.04032163837382888, -74.1815192757758, 0.27925485372543335, -1.4785594940185547, 1.1736135482788463, 0.313088822917996, -0.08632957875167481, -6.385790766216815e-05, 0.8263869285587903, 2.1514997482299827, 1.5702514648437778, 0.5852737426760207, 0.4510911405086627, State.normal
22.733922243118286, 0.00015709408834287954, 0.039671762156932244, -73.99954582474516, 0.2795608341693878, -1.5165307521820068, 1.1736201047898853, 0.31252928543794367, -0.08652127951532429, -5.217610305408016e-05, 0.8263798952103091, 2.1303100585937536, 1.5653399229050093, 0.5857768654823657, 0.4513658881188093, State.normal
22.850127458572388, 0.0001844167335687358, 0.038108893263081076, -73.82522069781656, 0.27992498874664307, -1.5525012016296387, 1.1736307144168066, 0.31198909975739353, -0.08671283481968023, -4.034408993902616e-05, 0.8263694047928479, 2.087830066680927, 1.5558798313140916, 0.5866212844848697, 0.4521310627463908, State.normal
22.96534037590027, 0.0001844164439537876, 0.045952880207751165, -73.63578293870235, 0.2803988754749298, -1.5913299322128296, 1.1736350059510308, 0.31141914208689553, -0.08690904973935155, -3.6205532524036244e-05, 0.8263655304910688, 2.0667245388031046, 1.5514167547225957, 0.5869615674018936, 0.4526176750664541, State.normal
23.087143421173096, 0.00018441749310845154, 0.03720616344369444, -73.44558464104136, 0.2809658646583557, -1.63009512424469, 1.173638939857489, 0.31084173928816355, -0.0870772225555711, -2.815301195369102e-05, 0.82636141777041, 2.045735120773319, 1.5471808910370306, 0.587237894535079, 0.4531799554831983, State.normal
23.21306300163269, 0.00015709535414390796, 0.030206569389555998, -73.24080533187846, 0.28166311979293823, -1.6717009544372559, 1.1736414432526119, 0.3102276404221099, -0.08746699249950099, -1.0801962162076961e-05, 0.8263586759567588, 2.0249059200287007, 1.5431658029556348, 0.5874552726751208, 0.45381227135701674, State.normal
23.333527088165283, 0.00012294446711014917, 0.02578323587685544, -73.05010510268409, 0.2823393940925598, -1.7084167003631592, 1.1736427545548092, 0.309641498766781, -0.0879120839609351, 7.310685532502248e-07, 0.8263571262360098, 2.004304170608527, 1.5393507480622077, 0.5876257419587179, 0.4545021355153116, State.normal
23.44921636581421, 0.00012294319964951725, 0.02264127707689688, -72.86883064233601, 0.28310129046440125, -1.7470141649246216, 1.1736427545549801, 0.30909038550211504, -0.08842046875236177, 6.816593668190762e-06, 0.8263572454452558, 1.9839378595352348, 1.5357012748718317, 0.5877576470376933, 0.4552417695532441, State.normal
23.56707739830017, -1.3660555660222995e-05, 0.02008613963381833, -73.03438068184357, 0.28388604521751404, -1.7846001386642456, 1.173642277718155, 0.30906372143529975, -0.08710171307135126, 1.1125388482469134e-05, 0.82635760307314, 1.978082895278933, 1.5368007421493723, 0.5870120525360965, 0.4561322331429187, State.normal
23.687968015670776, -0.000136603875728346, -0.003997802462938507, -73.8555038306311, 0.2847212851047516, -1.8231042623519897, 1.1736402511596802, 0.3100552258820404, -0.08220458132819351, 2.8413489417289384e-05, 0.8263595104217873, 2.0532820224762056, 1.598050355911275, 0.5846715569496755, 0.4551213085651464, State.normal
23.803040027618408, 0.00012294537064391216, -0.05636594005493038, -74.678162977405, 0.28549128770828247, -1.859655737876892, 1.173637151718194, 0.3108982288223244, -0.07847219813353203, 7.620359974680468e-05, 0.8263632059099462, 2.160855531692513, 1.6789078712464072, 0.581904232502143, 0.45376381278044325, State.normal
23.928961038589478, 0.0004576174756208601, -0.09896849310793934, -75.12719328438916, 0.2862085998058319, -1.9010192155838013, 1.1736299991607742, 0.3111685714423174, -0.0779279243788032, 0.00013409477833192796, 0.8263719081879248, 2.231004953384409, 1.729933500289935, 0.5802040100097753, 0.45310470461904084, State.normal
24.04528021812439, 0.0003688251167974164, -0.08895872132042361, -75.27532888576413, 0.28662365674972534, -1.9375970363616943, 1.1736176013946835, 0.31109462058339454, -0.07903876236114235, 0.00013775557454209775, 0.8263851404190493, 2.2676632404327473, 1.7603583335876656, 0.5793328285219153, 0.45283207297327704, State.normal
24.16010355949402, 0.000157096893480491, -0.06100461466637308, -75.28434591744269, 0.28684574365615845, -1.97515869140625, 1.1736029386521492, 0.3108344851334953, -0.08045209381098005, 9.251751907868311e-05, 0.8263990283012498, 2.2818484306335485, 1.7766478061676065, 0.5790439844132961, 0.4526991248141833, State.normal
24.28421664237976, 1.7977687767637346e-11, -0.02987670212965198, -75.20737174361692, 0.2869223654270172, -2.0146501064300537, 1.1735838651657347, 0.31042790465124354, -0.08180654228127777, 2.9316184736671858e-05, 0.8264161348342922, 2.2725811004638685, 1.7741656303405933, 0.5795355439186479, 0.4525180459034273, State.normal
24.396995544433594, -3.415092965755129e-05, 0.003388980869961976, -75.08930522630274, 0.28691741824150085, -2.0512382984161377, 1.1735821962356643, 0.309981639499273, -0.08270058401482423, -2.4719678549445234e-05, 0.8264175653457749, 2.2580959796905575, 1.760927438735962, 0.5800762176514767, 0.4524433016777116, State.normal
24.518129110336304, -1.342197057347618e-10, 0.022743214672659773, -74.93712432128385, 0.2869071364402771, -2.089719295501709, 1.1735856533050795, 0.3094710245053007, -0.0832292485863133, -6.54801115160808e-05, 0.8264141678814596, 2.2403678894043004, 1.7450878620147883, 0.5806950926781675, 0.45240351557768965, State.normal
24.63699746131897, 6.147191494476305e-05, 0.033340881113150346, -74.76834382129536, 0.2869396507740021, -2.1281518936157227, 1.1735926866533566, 0.3089372120013151, -0.08355273478032084, -7.961816299939528e-05, 0.8264071941375754, 2.2207145690918004, 1.7279400825500675, 0.5813329815864855, 0.45241737365738577, State.normal
24.75590467453003, 0.00012294499634271986, 0.038662126014167325, -74.59004163046306, 0.28704091906547546, -2.166530132293701, 1.1736010313037266, 0.3083979772642525, -0.08378717898053534, -7.833927520550787e-05, 0.8263993859294758, 2.199960231781013, 1.7102634906768965, 0.5819557309153701, 0.4524970650673848, State.normal
24.869290590286255, 0.00015709514426566444, 0.04060640624694682, -74.41563759014615, 0.28721287846565247, -2.2029356956481934, 1.1736092567446041, 0.307872735745085, -0.08394967014000408, -6.978320743655786e-05, 0.8263913393022393, 2.1786155700683643, 1.692532300949116, 0.5825418233872064, 0.45264816284230264, State.normal
24.983935117721558, 0.00015709458132656911, 0.04053751179908481, -74.2383424675507, 0.28746309876441956, -2.239288330078125, 1.1736232042313652, 0.30734436933309195, -0.08410871693413188, -5.8467627241043374e-05, 0.8263772726059518, 2.1569886207580864, 1.6750168800354037, 0.5830796360969744, 0.4528723657131374, State.normal
25.09795045852661, 0.00018441469173134903, 0.039244857821854794, -74.05936416184848, 0.2877722978591919, -2.273677349090576, 1.173628807067877, 0.30681408210295913, -0.08428859229256278, -4.632661512005143e-05, 0.8263715505600749, 2.1135954856872563, 1.6411895751953818, 0.5839903950691638, 0.4535416066646632, State.normal
25.213231801986694, 0.00018441470644042052, 0.04808412584170523, -73.8793672572535, 0.28819823265075684, -2.3118302822113037, 1.1736330986024297, 0.30627590481271966, -0.08438432283647401, -4.201783303869888e-05, 0.8263676166534532, 2.0920276641845743, 1.6249930858612254, 0.5843605995178288, 0.45398321747915654, State.normal
25.3260395526886, 0.00018441777689900897, 0.03951192469342048, -73.70348785408498, 0.2886800765991211, -2.3470659255981445, 1.1736369132996574, 0.3057584838020181, -0.08447914469798534, -3.545592335285619e-05, 0.8263634443283446, 2.0705695152282853, 1.6093392372131414, 0.5846635103225835, 0.4545041024696496, State.normal
25.437421321868896, 0.00018441427579967776, 0.03240231782613206, -73.5225339846153, 0.2892506718635559, -2.3832006454467773, 1.1736402511597057, 0.30523392073799144, -0.08476516205391506, -1.8612725398270413e-05, 0.826359987258931, 2.049270868301395, 1.594219803810134, 0.5849034786224556, 0.45509874820710655, State.normal
25.559999227523804, 0.00015709402763165663, 0.02724067913891477, -73.3319087908229, 0.2899172008037567, -2.4211833477020264, 1.1736421585083023, 0.3046667039127709, -0.08515506385593959, -4.18284980696626e-06, 0.8263578414917342, 2.0281929969787917, 1.5795838832855706, 0.5850929617883077, 0.4557546675205509, State.normal
25.678136587142944, 0.0001229430898443953, 0.02355780806955506, -73.14110957420749, 0.2906387746334076, -2.4591150283813477, 1.1736426353454787, 0.3041052732475051, -0.08564963729182484, 4.0098643694364e-06, 0.8263573646547646, 2.007363319396985, 1.565390467643929, 0.5852419734005513, 0.45646181702628874, State.normal
25.79837155342102, 0.00012294317598703525, 0.020803223144161966, -72.95497152442724, 0.2913869619369507, -2.4960522651672363, 1.1736423969269358, 0.3035496067336696, -0.08618379790824314, 9.029638022184372e-06, 0.8263572454453589, 1.9868052005767873, 1.5516121387482138, 0.5853567123414453, 0.45721334218978904, State.normal
